{
  "protocolSection": {
    "identificationModule": {
      "nctId": "NCT05645692",
      "orgStudyIdInfo": {
        "id": "BO44157"
      },
      "organization": {
        "fullName": "Hoffmann-La Roche",
        "class": "INDUSTRY"
      },
      "briefTitle": "A Study Evaluating Different Immunotherapies (LAG-3 and PD-1 With or Without TIGIT, Compared to PD-L1 Alone) in Participants With Untreated Locally Advanced Metastatic Urothelial Cancer",
      "officialTitle": "A Phase II, Randomized, Multicenter, Open-Label, Controlled Study of Tobemstomig Alone or in Combination With Tiragolumab Versus Atezolizumab in Patients With Previously Untreated Locally Advanced or Metastatic Urothelial Cancer Who Are Ineligible for Platinum-Containing Chemotherapy"
    },
    "statusModule": {
      "statusVerifiedDate": "2026-01",
      "overallStatus": "ACTIVE_NOT_RECRUITING",
      "expandedAccessInfo": {
        "hasExpandedAccess": false
      },
      "startDateStruct": {
        "date": "2023-04-13",
        "type": "ACTUAL"
      },
      "primaryCompletionDateStruct": {
        "date": "2026-12-31",
        "type": "ESTIMATED"
      },
      "completionDateStruct": {
        "date": "2026-12-31",
        "type": "ESTIMATED"
      },
      "studyFirstSubmitDate": "2022-11-28",
      "studyFirstSubmitQcDate": "2022-12-07",
      "studyFirstPostDateStruct": {
        "date": "2022-12-09",
        "type": "ACTUAL"
      },
      "lastUpdateSubmitDate": "2026-01-28",
      "lastUpdatePostDateStruct": {
        "date": "2026-01-30",
        "type": "ACTUAL"
      }
    },
    "sponsorCollaboratorsModule": {
      "responsibleParty": {
        "type": "SPONSOR"
      },
      "leadSponsor": {
        "name": "Hoffmann-La Roche",
        "class": "INDUSTRY"
      }
    },
    "oversightModule": {
      "oversightHasDmc": false,
      "isFdaRegulatedDrug": true,
      "isFdaRegulatedDevice": false
    },
    "descriptionModule": {
      "briefSummary": "This study will evaluate the safety of tobemstomig alone or in combination with tiragolumab compared with atezolizumab in participants with previously untreated, locally advanced or metastatic urothelial cancer (mUC) who are ineligible to receive a platinum containing chemotherapy."
    },
    "conditionsModule": {
      "conditions": [
        "Urothelial Cancer"
      ]
    },
    "designModule": {
      "studyType": "INTERVENTIONAL",
      "phases": [
        "PHASE2"
      ],
      "designInfo": {
        "allocation": "RANDOMIZED",
        "interventionModel": "PARALLEL",
        "primaryPurpose": "TREATMENT",
        "maskingInfo": {
          "masking": "NONE"
        }
      },
      "enrollmentInfo": {
        "count": 204,
        "type": "ACTUAL"
      }
    },
    "armsInterventionsModule": {
      "armGroups": [
        {
          "label": "Arm A",
          "type": "ACTIVE_COMPARATOR",
          "description": "Participants will receive intravenous (IV) atezolizumab every 3 weeks (Q3W).",
          "interventionNames": [
            "Drug: Atezolizumab"
          ]
        },
        {
          "label": "Arm B",
          "type": "EXPERIMENTAL",
          "description": "Participants will receive IV tobemstomig Q3W.",
          "interventionNames": [
            "Drug: Tobemstomig"
          ]
        },
        {
          "label": "Arm C",
          "type": "EXPERIMENTAL",
          "description": "Participants will receive IV tobemstomig + IV tiragolumab Q3W.",
          "interventionNames": [
            "Drug: Tobemstomig",
            "Drug: Tiragolumab"
          ]
        }
      ],
      "interventions": [
        {
          "type": "DRUG",
          "name": "Atezolizumab",
          "description": "Participants will receive 1200 mg IV atezolizumab Q3W.",
          "armGroupLabels": [
            "Arm A"
          ]
        },
        {
          "type": "DRUG",
          "name": "Tobemstomig",
          "description": "Participants will receive 600 mg IV tobemstomig Q3W.",
          "armGroupLabels": [
            "Arm B",
            "Arm C"
          ],
          "otherNames": [
            "RO7247669"
          ]
        },
        {
          "type": "DRUG",
          "name": "Tiragolumab",
          "description": "Participants will receive 600 mg IV tiragolumab Q3W.",
          "armGroupLabels": [
            "Arm C"
          ]
        }
      ]
    },
    "outcomesModule": {
      "primaryOutcomes": [
        {
          "measure": "Incidence and Severity of Adverse Events",
          "timeFrame": "Up to approximately 30 months"
        }
      ]
    },
    "eligibilityModule": {
      "eligibilityCriteria": "Inclusion Criteria:\n\n* Eastern Cooperative Oncology Group (ECOG) Performance Status of ≤ 2\n* Histologically or cytologically documented locally advanced or metastatic transitional cell carcinoma (TCC) of the urothelium. Participants with squamous, sarcomatoid, micropapillary, and glandular variant histologies are eligible for inclusion in the study, provided that a urothelial component is present in the tumor specimen. Participants with other variant histologies or pure variant histologies are not eligible for inclusion in this study\n* Ineligible (\"unfit\") to receive platinum-based chemotherapy\n* No prior chemotherapy for inoperable locally advanced or metastatic or recurrent urothelial carcinoma (UC)\n* Measurable disease; at least one measurable lesion as defined by response evaluation criteria in solid tumors, version 1.1 (RECIST v1.1)\n* Availability of a representative leftover tumor specimen that is suitable for determination of PD-L1 status as assessed by a central laboratory\n* Adequate hematologic and end organ function\n* Negative for hepatitis B and hepatitis C virus (HCV)\n* Adequate cardiovascular function\n\nExclusion Criteria:\n\n* Pregnancy or breastfeeding\n* GFR \\<15 mL/min/1.73 m2\n* Symptomatic, untreated, or actively progressing central nervous system (CNS) metastases\n* History of leptomeningeal disease\n* Uncontrolled tumor-related pain\n* Uncontrolled pleural effusion, pericardial effusion, or ascites requiring recurrent drainage procedures\n* Uncontrolled or symptomatic hypercalcemia\n* Active or history of autoimmune disease or immune deficiency\n* History of idiopathic pulmonary fibrosis, organizing pneumonia, drug-induced pneumonitis, or idiopathic pneumonitis, or evidence of active pneumonitis on screening chest computed tomography (CT) scan\n* Active tuberculosis (TB) or acute Epstein-Barr virus (EBV)\n* Significant cardiovascular/cerebrovascular disease within 3 months prior to initiation of study treatment\n* Major surgical procedure, other than for diagnosis, within 4 weeks prior to initiation of study treatment, or anticipation of need for a major surgical procedure during the study\n* History of another primary malignancy other than urothelial carcinoma within 2 years prior to initiation of study treatment, with the exception of malignancies with a negligible risk of metastasis or death\n* Severe infection within 4 weeks prior to initiation of study treatment\n* Treatment with therapeutic oral or intravenous antibiotics within 2 weeks prior to initiation of study treatment. Participants receiving prophylactic antibiotics (e.g., to prevent a urinary tract infection or chronic obstructive pulmonary disease \\[COPD\\] exacerbation), or who are receiving oral antibiotics to treat a urinary tract infection are eligible for the study\n* Prior allogeneic stem cell or solid organ transplantation\n* Treatment with a live, attenuated vaccine within 4 weeks prior to initiation of study treatment, or anticipation of need for such a vaccine during treatment or within 5 months after the final dose of atezolizumab, 4 months after the final dose of tobemstomig, or 90 days after the final dose of tiragolumab\n* Current treatment with anti-viral therapy for HBV\n* Treatment with any approved anti-cancer therapy, including chemotherapy or hormonal therapy, within 3 weeks prior to initiation of study treatment\n* Treatment with investigational therapy within 4 weeks or 5 drug-elimination half-lives (whichever is longer) prior to initiation of study treatment\n* Prior treatment with CD137 agonists or immune checkpoint blockade therapies, including anti-TIGIT and anti-LAG3 therapeutic antibodies or pathways targeting agents\n* Treatment with systemic immunostimulatory agents within 4 weeks or 5 drug-elimination half-lives prior to initiation of study treatment\n* Treatment with systemic immunosuppressive medication within 2 weeks prior to initiation of study treatment, or anticipation of need for systemic immunosuppressive medication during study treatment\n* History of severe allergic anaphylactic reactions to chimeric or humanized antibodies or fusion proteins",
      "healthyVolunteers": false,
      "sex": "ALL",
      "minimumAge": "18 Years",
      "stdAges": [
        "ADULT",
        "OLDER_ADULT"
      ]
    },
    "contactsLocationsModule": {
      "overallOfficials": [
        {
          "name": "Clinical Trials",
          "affiliation": "Hoffmann-LaRoche",
          "role": "STUDY_DIRECTOR"
        }
      ],
      "locations": [
        {
          "facility": "Cleveland Clinic",
          "city": "Cleveland",
          "state": "Ohio",
          "zip": "44106",
          "country": "United States",
          "geoPoint": {
            "lat": 41.4995,
            "lon": -81.69541
          }
        },
        {
          "facility": "MD Anderson Cancer Center",
          "city": "Houston",
          "state": "Texas",
          "zip": "77030",
          "country": "United States",
          "geoPoint": {
            "lat": 29.76328,
            "lon": -95.36327
          }
        },
        {
          "facility": "Macquarie University Hospital",
          "city": "Macquarie Park",
          "state": "New South Wales",
          "zip": "2113",
          "country": "Australia",
          "geoPoint": {
            "lat": -33.78105,
            "lon": 151.12757
          }
        },
        {
          "facility": "Lyell McEwin Hospital",
          "city": "Adelaide",
          "state": "South Australia",
          "zip": "5112",
          "country": "Australia",
          "geoPoint": {
            "lat": -34.92866,
            "lon": 138.59863
          }
        },
        {
          "facility": "ICON Cancer Care Adelaide",
          "city": "Kurralta Park",
          "state": "South Australia",
          "zip": "5037",
          "country": "Australia",
          "geoPoint": {
            "lat": -34.95142,
            "lon": 138.56702
          }
        },
        {
          "facility": "Hospital Universitario Evangelico De Curitiba",
          "city": "Curitiba",
          "state": "Paraná",
          "zip": "80440-220",
          "country": "Brazil",
          "geoPoint": {
            "lat": -25.42778,
            "lon": -49.27306
          }
        },
        {
          "facility": "Hospital das Clinicas - UFRGS",
          "city": "Porto Alegre",
          "state": "Rio Grande do Sul",
          "zip": "90035-903",
          "country": "Brazil",
          "geoPoint": {
            "lat": -30.03283,
            "lon": -51.23019
          }
        },
        {
          "facility": "Hospital de Amor Amazônia",
          "city": "Porto Velho",
          "state": "Rondônia",
          "zip": "76834-899",
          "country": "Brazil",
          "geoPoint": {
            "lat": -8.76194,
            "lon": -63.90389
          }
        },
        {
          "facility": "*X*CEPHO - Centro de Estudos e Pesquisas em Hematologia e Oncologia",
          "city": "Santo André",
          "state": "São Paulo",
          "zip": "09060-650",
          "country": "Brazil",
          "geoPoint": {
            "lat": -23.66389,
            "lon": -46.53833
          }
        },
        {
          "facility": "Hospital Alemao Oswaldo Cruz",
          "city": "São Paulo",
          "state": "São Paulo",
          "zip": "01323-903",
          "country": "Brazil",
          "geoPoint": {
            "lat": -23.5475,
            "lon": -46.63611
          }
        },
        {
          "facility": "Beijing Cancer Hospital",
          "city": "Beijing",
          "zip": "100142",
          "country": "China",
          "geoPoint": {
            "lat": 39.9075,
            "lon": 116.39723
          }
        },
        {
          "facility": "West China Hospital - Sichuan University",
          "city": "Chengdu",
          "zip": "610047",
          "country": "China",
          "geoPoint": {
            "lat": 30.66667,
            "lon": 104.06667
          }
        },
        {
          "facility": "Sun yat-sen University Cancer Center",
          "city": "Guangzhou",
          "zip": "510060",
          "country": "China",
          "geoPoint": {
            "lat": 23.11667,
            "lon": 113.25
          }
        },
        {
          "facility": "Ruijin Hospital, Shanghai Jiaotong University School of Medicine",
          "city": "Shanghai",
          "zip": "200025",
          "country": "China",
          "geoPoint": {
            "lat": 31.22222,
            "lon": 121.45806
          }
        },
        {
          "facility": "Aarhus Universitetshospital",
          "city": "Aarhus N",
          "zip": "8200",
          "country": "Denmark",
          "geoPoint": {
            "lat": 56.20367,
            "lon": 10.17317
          }
        },
        {
          "facility": "Herlev Hospital",
          "city": "Herlev",
          "zip": "2730",
          "country": "Denmark",
          "geoPoint": {
            "lat": 55.72366,
            "lon": 12.43998
          }
        },
        {
          "facility": "Centre Leon Berard",
          "city": "Lyon",
          "zip": "69373",
          "country": "France",
          "geoPoint": {
            "lat": 45.74906,
            "lon": 4.84789
          }
        },
        {
          "facility": "Gustave Roussy",
          "city": "Villejuif",
          "zip": "94800",
          "country": "France",
          "geoPoint": {
            "lat": 48.7939,
            "lon": 2.35992
          }
        },
        {
          "facility": "Krankenhaus Martha-Maria Halle-Dölau, Klinik für Urologie",
          "city": "Halle",
          "zip": "06120",
          "country": "Germany",
          "geoPoint": {
            "lat": 51.48158,
            "lon": 11.97947
          }
        },
        {
          "facility": "Martini-Klinik am UKE GmbH",
          "city": "Hamburg",
          "zip": "20246",
          "country": "Germany",
          "geoPoint": {
            "lat": 53.55073,
            "lon": 9.99302
          }
        },
        {
          "facility": "Alexandras General Hospital of Athens",
          "city": "Athens",
          "zip": "115 28",
          "country": "Greece",
          "geoPoint": {
            "lat": 37.98376,
            "lon": 23.72784
          }
        },
        {
          "facility": "Attikon University General Hospital",
          "city": "Chaïdári",
          "zip": "124 62",
          "country": "Greece",
          "geoPoint": {
            "lat": 38.01135,
            "lon": 23.66597
          }
        },
        {
          "facility": "Theageneio Hospital",
          "city": "Thessaloniki",
          "zip": "54007",
          "country": "Greece",
          "geoPoint": {
            "lat": 40.64072,
            "lon": 22.93493
          }
        },
        {
          "facility": "A.O. Universitaria Ospedale Consorziale Policlinico Di Bari",
          "city": "Bari",
          "state": "Apulia",
          "zip": "70124",
          "country": "Italy",
          "geoPoint": {
            "lat": 41.12066,
            "lon": 16.86982
          }
        },
        {
          "facility": "Istituto Nazionale Tumori Irccs Fondazione G. Pascale",
          "city": "Napoli",
          "state": "Campania",
          "zip": "80131",
          "country": "Italy",
          "geoPoint": {
            "lat": 40.87618,
            "lon": 14.5195
          }
        },
        {
          "facility": "Azienda Ospedaliero-Universitaria S.Orsola-Malpighi",
          "city": "Bologna",
          "state": "Emilia-Romagna",
          "zip": "40138",
          "country": "Italy",
          "geoPoint": {
            "lat": 44.49381,
            "lon": 11.33875
          }
        },
        {
          "facility": "IRST Istituto Scientifico Romagnolo Per Lo Studio E Cura Dei Tumori, Sede Meldola",
          "city": "Meldola",
          "state": "Emilia-Romagna",
          "zip": "47014",
          "country": "Italy",
          "geoPoint": {
            "lat": 44.12775,
            "lon": 12.0626
          }
        },
        {
          "facility": "Policlinico Universitario \"Agostino Gemelli\"",
          "city": "Rome",
          "state": "Lazio",
          "zip": "00168",
          "country": "Italy",
          "geoPoint": {
            "lat": 41.89193,
            "lon": 12.51133
          }
        },
        {
          "facility": "Irccs Ospedale San Raffaele",
          "city": "Milan",
          "state": "Lombardy",
          "zip": "20132",
          "country": "Italy",
          "geoPoint": {
            "lat": 45.46427,
            "lon": 9.18951
          }
        },
        {
          "facility": "Azienda Ospedaliera S. Maria - Terni",
          "city": "Terni",
          "state": "Umbria",
          "zip": "05100",
          "country": "Italy",
          "geoPoint": {
            "lat": 42.56335,
            "lon": 12.64329
          }
        },
        {
          "facility": "IRCCS Istituto Oncologico Veneto (IOV)",
          "city": "Padua",
          "state": "Veneto",
          "zip": "35128",
          "country": "Italy",
          "geoPoint": {
            "lat": 45.40797,
            "lon": 11.88586
          }
        },
        {
          "facility": "Health Pharma Professional Research",
          "city": "Mexico City",
          "state": "Mexico CITY (federal District)",
          "zip": "03100",
          "country": "Mexico",
          "geoPoint": {
            "lat": 19.42847,
            "lon": -99.12766
          }
        },
        {
          "facility": "Szpital Wojewódzki im. Miko?aja Kopernika",
          "city": "Koszalin",
          "zip": "75-581",
          "country": "Poland",
          "geoPoint": {
            "lat": 54.19438,
            "lon": 16.17222
          }
        },
        {
          "facility": "Szpital Uniwersytecki w Krakowie",
          "city": "Krakow",
          "zip": "31-501",
          "country": "Poland",
          "geoPoint": {
            "lat": 50.06143,
            "lon": 19.93658
          }
        },
        {
          "facility": "Pratia Poznan",
          "city": "Późna",
          "zip": "60-192",
          "country": "Poland",
          "geoPoint": {
            "lat": 51.84442,
            "lon": 14.61868
          }
        },
        {
          "facility": "Szpital Grochowski im. dr med. Rafa?a Masztaka Sp. z o.o.",
          "city": "Warsaw",
          "zip": "04-073",
          "country": "Poland",
          "geoPoint": {
            "lat": 52.22977,
            "lon": 21.01178
          }
        },
        {
          "facility": "Seoul National University Bundang Hospital",
          "city": "Gyeonggi-do",
          "country": "South Korea",
          "geoPoint": {
            "lat": 37.58944,
            "lon": 126.76917
          }
        },
        {
          "facility": "Gachon University Gil Medical Center",
          "city": "Incheon",
          "zip": "21565",
          "country": "South Korea",
          "geoPoint": {
            "lat": 37.45646,
            "lon": 126.70515
          }
        },
        {
          "facility": "Seoul National University Hospital",
          "city": "Seoul",
          "zip": "03080",
          "country": "South Korea",
          "geoPoint": {
            "lat": 37.566,
            "lon": 126.9784
          }
        },
        {
          "facility": "Severance Hospital, Yonsei University",
          "city": "Seoul",
          "zip": "03722",
          "country": "South Korea",
          "geoPoint": {
            "lat": 37.566,
            "lon": 126.9784
          }
        },
        {
          "facility": "Asan Medical Center",
          "city": "Seoul",
          "zip": "05505",
          "country": "South Korea",
          "geoPoint": {
            "lat": 37.566,
            "lon": 126.9784
          }
        },
        {
          "facility": "Samsung Medical Center",
          "city": "Seoul",
          "zip": "06351",
          "country": "South Korea",
          "geoPoint": {
            "lat": 37.566,
            "lon": 126.9784
          }
        },
        {
          "facility": "Vall d'Hebron Institute of Oncology (VHIO), Barcelona",
          "city": "Barcelona",
          "zip": "08035",
          "country": "Spain",
          "geoPoint": {
            "lat": 41.38879,
            "lon": 2.15899
          }
        },
        {
          "facility": "Institut Catala d Oncologia Hospital Duran i Reynals",
          "city": "Barcelona",
          "zip": "08908",
          "country": "Spain",
          "geoPoint": {
            "lat": 41.38879,
            "lon": 2.15899
          }
        },
        {
          "facility": "Hospital Universitario Clínico San Carlos",
          "city": "Madrid",
          "zip": "28040",
          "country": "Spain",
          "geoPoint": {
            "lat": 40.4165,
            "lon": -3.70256
          }
        },
        {
          "facility": "Hospital Universitario 12 de Octubre",
          "city": "Madrid",
          "zip": "28041",
          "country": "Spain",
          "geoPoint": {
            "lat": 40.4165,
            "lon": -3.70256
          }
        },
        {
          "facility": "Hospital Universitario La Paz",
          "city": "Madrid",
          "zip": "28046",
          "country": "Spain",
          "geoPoint": {
            "lat": 40.4165,
            "lon": -3.70256
          }
        },
        {
          "facility": "Hospital de Madrid Norte Sanchinarro- Centro Integral Oncologico Clara Campal",
          "city": "Madrid",
          "zip": "28050",
          "country": "Spain",
          "geoPoint": {
            "lat": 40.4165,
            "lon": -3.70256
          }
        },
        {
          "facility": "Adana Baskent University Medical Faculty",
          "city": "Adana",
          "zip": "01220",
          "country": "Turkey (Türkiye)",
          "geoPoint": {
            "lat": 36.98615,
            "lon": 35.32531
          }
        },
        {
          "facility": "Ankara City Hospital",
          "city": "Ankara",
          "zip": "06800",
          "country": "Turkey (Türkiye)",
          "geoPoint": {
            "lat": 39.91987,
            "lon": 32.85427
          }
        },
        {
          "facility": "Trakya Universitesi Tip Fakultesi, Medikal Onkoloji Bilim Dali, Balkan Yerleskesi",
          "city": "Edirne",
          "zip": "22030",
          "country": "Turkey (Türkiye)",
          "geoPoint": {
            "lat": 41.67719,
            "lon": 26.55597
          }
        },
        {
          "facility": "Izmir Medical Point Hospital",
          "city": "Izmir",
          "zip": "35101",
          "country": "Turkey (Türkiye)",
          "geoPoint": {
            "lat": 38.41273,
            "lon": 27.13838
          }
        },
        {
          "facility": "Goztepe Prof.Dr. Suleyman Yalcin City Hospital",
          "city": "Kadiköy",
          "zip": "34722",
          "country": "Turkey (Türkiye)",
          "geoPoint": {
            "lat": 41.06639,
            "lon": 41.01294
          }
        },
        {
          "facility": "Barts and the London NHS Trust",
          "city": "London",
          "zip": "E1 2ES",
          "country": "United Kingdom",
          "geoPoint": {
            "lat": 51.50853,
            "lon": -0.12574
          }
        },
        {
          "facility": "Royal Preston Hosptial",
          "city": "Preston",
          "zip": "PR2 9HT",
          "country": "United Kingdom",
          "geoPoint": {
            "lat": 53.76282,
            "lon": -2.70452
          }
        },
        {
          "facility": "Royal Marsden Hospital (Sutton)",
          "city": "Sutton",
          "zip": "SM2 5PT",
          "country": "United Kingdom",
          "geoPoint": {
            "lat": 51.35,
            "lon": -0.2
          }
        }
      ]
    },
    "ipdSharingStatementModule": {
      "ipdSharing": "YES",
      "description": "For eligible studies, qualified researchers may request access to individual patient level clinical data. See Roche's commitment to transparency of clinical study information here: https://go.roche.com/data\\_sharing"
    }
  },
  "derivedSection": {
    "miscInfoModule": {
      "versionHolder": "2026-02-04"
    },
    "interventionBrowseModule": {
      "meshes": [
        {
          "id": "C000594389",
          "term": "atezolizumab"
        },
        {
          "id": "C000730814",
          "term": "Tiragolumab"
        }
      ]
    }
  },
  "hasResults": false
}