{
  "protocolSection": {
    "identificationModule": {
      "nctId": "NCT00422149",
      "orgStudyIdInfo": {
        "id": "SG/0021"
      },
      "secondaryIdInfos": [
        {
          "id": "EudraCTnr: 2005-005175-16"
        }
      ],
      "organization": {
        "fullName": "HAL Allergy",
        "class": "INDUSTRY"
      },
      "briefTitle": "Twin SUBLIVAC® Grasses Clinical Efficacy Study",
      "officialTitle": "Twin SUBLIVAC® Grasses Clinical Efficacy Study"
    },
    "statusModule": {
      "statusVerifiedDate": "2012-02",
      "overallStatus": "COMPLETED",
      "expandedAccessInfo": {
        "hasExpandedAccess": false
      },
      "startDateStruct": {
        "date": "2006-09"
      },
      "primaryCompletionDateStruct": {
        "date": "2007-10",
        "type": "ACTUAL"
      },
      "completionDateStruct": {
        "date": "2007-10",
        "type": "ACTUAL"
      },
      "studyFirstSubmitDate": "2007-01-12",
      "studyFirstSubmitQcDate": "2007-01-12",
      "studyFirstPostDateStruct": {
        "date": "2007-01-15",
        "type": "ESTIMATED"
      },
      "lastUpdateSubmitDate": "2012-02-06",
      "lastUpdatePostDateStruct": {
        "date": "2012-02-07",
        "type": "ESTIMATED"
      }
    },
    "sponsorCollaboratorsModule": {
      "responsibleParty": {
        "oldNameTitle": "H.A.J. Kleinjans",
        "oldOrganization": "HAL Allergy BV"
      },
      "leadSponsor": {
        "name": "HAL Allergy",
        "class": "INDUSTRY"
      }
    },
    "oversightModule": {
      "oversightHasDmc": true
    },
    "descriptionModule": {
      "briefSummary": "To show that treatment with SUBLIVAC® Grasses is clinically effective by means of reduction in allergic symptoms and/or use of allergic symptomatic medication in subjects suffering from IgE mediated allergic complaints triggered by grass pollen.",
      "detailedDescription": "Indication under study: IgE mediated allergic disorders triggered by grass pollen.\n\nNumber of centres: approximately 50.\n\nStudy period planned: Q2-2006 until Q3-2008 Analysis after one exposed season (2007); based on the outcome the study will be stopped or continued for another season.\n\nSubject selection criteria: Seasonal rhinitis and/or rhinoconjunctivitis with or without mild asthma (FEV1 \\> 70%) related to grass pollen, age 12 years or older.\n\nDosage schedule: Start with two drops daily of SUBLIVAC® and increase by two drops daily, until the maintenance dose of 10 drops SUBLIVAC® GrassesSUBLIVAC® Grasses is reached.\n\nRoute of administration: Sublingual application (drops are to be held underneath the tongue for 2-3 minutes and then will be swallowed).\n\nDuration of treatment: 6 to 12 months blinded per subject . Efficacy parameters"
    },
    "conditionsModule": {
      "conditions": [
        "Rhinitis, Allergic, Seasonal",
        "Conjunctivitis, Allergic"
      ],
      "keywords": [
        "Sublingual immunotherapy",
        "Rhinoconjunctivitis"
      ]
    },
    "designModule": {
      "studyType": "INTERVENTIONAL",
      "phases": [
        "PHASE3"
      ],
      "designInfo": {
        "allocation": "RANDOMIZED",
        "interventionModel": "PARALLEL",
        "primaryPurpose": "TREATMENT",
        "maskingInfo": {
          "masking": "QUADRUPLE",
          "whoMasked": [
            "PARTICIPANT",
            "CARE_PROVIDER",
            "INVESTIGATOR",
            "OUTCOMES_ASSESSOR"
          ]
        }
      },
      "enrollmentInfo": {
        "count": 350,
        "type": "ACTUAL"
      }
    },
    "armsInterventionsModule": {
      "armGroups": [
        {
          "label": "1",
          "type": "ACTIVE_COMPARATOR",
          "description": "SUBLIVAC® Grasses treatment",
          "interventionNames": [
            "Drug: SUBLIVAC® Grasses/Placebo treatment",
            "Drug: SUBLIVAC® Grasses treatment"
          ]
        },
        {
          "label": "2",
          "type": "PLACEBO_COMPARATOR",
          "description": "Placebo treatment",
          "interventionNames": [
            "Drug: SUBLIVAC® Grasses/Placebo treatment",
            "Drug: Placebo treatment"
          ]
        }
      ],
      "interventions": [
        {
          "type": "DRUG",
          "name": "SUBLIVAC® Grasses/Placebo treatment",
          "description": "SUBLIVAC® Grasses/Placebo treatment",
          "armGroupLabels": [
            "1",
            "2"
          ]
        },
        {
          "type": "DRUG",
          "name": "SUBLIVAC® Grasses treatment",
          "description": "SUBLIVAC® Grasses treatment",
          "armGroupLabels": [
            "1"
          ]
        },
        {
          "type": "DRUG",
          "name": "Placebo treatment",
          "description": "Placebo treatment",
          "armGroupLabels": [
            "2"
          ]
        }
      ]
    },
    "outcomesModule": {
      "primaryOutcomes": [
        {
          "measure": "Clinical index score (CIS), measured during the pollen season, in the treatment group compared to the placebo group.",
          "timeFrame": "June, July, August 2007"
        }
      ],
      "secondaryOutcomes": [
        {
          "measure": "CIS derived variables",
          "timeFrame": "June, July and August 2007"
        },
        {
          "measure": "RQLQ, quantitative skin prick test",
          "timeFrame": "Pollen season 2006 and 2007"
        },
        {
          "measure": "oral allergy syndrome",
          "timeFrame": "October 2006 until September 2007"
        },
        {
          "measure": "mast-cell serum tryptase",
          "timeFrame": "6 months therapy"
        },
        {
          "measure": "specific immunoglobulins (IgE and IgG).",
          "timeFrame": "6 months therapy"
        }
      ]
    },
    "eligibilityModule": {
      "eligibilityCriteria": "Inclusion Criteria:\n\n* Subjects with allergic rhinoconjunctivitis with or without mild asthma FEV1 ≥ 70%) for at least 2 years. Their allergic symptoms should be related to grass pollen Use of anti-allergy symptomatic medication in the last pollen season (or, in case of a low pollen season, in one of the two previous years)\n* A positive skin prick test (\\>3 mm) for early flowering treesgrasses and specific serum IgE-test(\\>1 U/ml) for grass pollen (Lolium perenne, Phleum pratense and Poa pratensis).\n\nExclusion Criteria:\n\n* A positive SPT for perennial allergens of house dust mite\n* Allergy to any of the excipients\n* Symptoms related to concomitant sensitisation to perennial allergens of pets\n* Chronic asthma or emphysema, particularly with a FEV1 \\< 70 % of predicted value or use of inhalation corticosteroids outside grass and tree pollen season for more than two episodes and/or longer than fourteen days\n* Use of symptomatic medication for more than three episodes and/or longer than three days outside the tree- or grass pollen season\n* Serious immuno-pathological diseases or malignancies (including auto-immune diseases, tuberculosis, HIV)\n* Inflammation and infection of the target organ\n* Severe atopic dermatitis requiring systemic immuno-suppressive medication\n* Allergen specific immuno-therapy treatment within the last 5 years for a period longer than three months\n* History of life threatening anaphylactic events, including anaphylactic food allergy, insect venom anaphylaxis, exercise or drug induced anaphylaxis\n* A positive pregnancy test, lactation or inadequate contraceptive measures Alcohol- or drug abuse\n* Lack of co-operation or severe psychological disorders",
      "healthyVolunteers": false,
      "sex": "ALL",
      "minimumAge": "12 Years",
      "stdAges": [
        "CHILD",
        "ADULT",
        "OLDER_ADULT"
      ]
    },
    "contactsLocationsModule": {
      "overallOfficials": [
        {
          "name": "R Peter, Prof.Dr.med",
          "affiliation": "Zentrum für Klinische Forschung, Helholzstrasse 8/1, 89081 Ulm, Germany",
          "role": "PRINCIPAL_INVESTIGATOR"
        }
      ],
      "locations": [
        {
          "facility": "Dr. P. van Durme",
          "city": "Antwerp",
          "zip": "2020",
          "country": "Belgium",
          "geoPoint": {
            "lat": 51.22047,
            "lon": 4.40026
          }
        },
        {
          "facility": "Centrum Gespecialiseerde Geneeskunde Genk",
          "city": "Genk",
          "zip": "3600",
          "country": "Belgium",
          "geoPoint": {
            "lat": 50.965,
            "lon": 5.50082
          }
        },
        {
          "facility": "UZ Gent, Dienst NKO, 1P1",
          "city": "Ghent",
          "zip": "9000",
          "country": "Belgium",
          "geoPoint": {
            "lat": 51.05,
            "lon": 3.71667
          }
        },
        {
          "facility": "UZ Gasthuisberg, Afd. Allergie/Immunologie",
          "city": "Leuven",
          "zip": "3000",
          "country": "Belgium",
          "geoPoint": {
            "lat": 50.87959,
            "lon": 4.70093
          }
        },
        {
          "facility": "UZ Gasthuisberg, Dienst Kindergeneeskunde",
          "city": "Leuven",
          "zip": "3000",
          "country": "Belgium",
          "geoPoint": {
            "lat": 50.87959,
            "lon": 4.70093
          }
        },
        {
          "facility": "UZ Gasthuisberg, lokatie St. Rafaël",
          "city": "Leuven",
          "zip": "3000",
          "country": "Belgium",
          "geoPoint": {
            "lat": 50.87959,
            "lon": 4.70093
          }
        },
        {
          "facility": "Kinderallergie-Astma kinderz.",
          "city": "Mechelen",
          "zip": "2800",
          "country": "Belgium",
          "geoPoint": {
            "lat": 51.02574,
            "lon": 4.47762
          }
        },
        {
          "facility": "Allergologie Aachen",
          "city": "Aachen",
          "zip": "52074",
          "country": "Germany",
          "geoPoint": {
            "lat": 50.77664,
            "lon": 6.08342
          }
        },
        {
          "facility": "Charité - Universitätsmedizin Berlin",
          "city": "Berlin",
          "zip": "10117",
          "country": "Germany",
          "geoPoint": {
            "lat": 52.52437,
            "lon": 13.41053
          }
        },
        {
          "facility": "Studienzentrum Berlin",
          "city": "Berlin",
          "zip": "13597",
          "country": "Germany",
          "geoPoint": {
            "lat": 52.52437,
            "lon": 13.41053
          }
        },
        {
          "facility": "Allergologie Braunschweig",
          "city": "Braunschweig",
          "zip": "38100",
          "country": "Germany",
          "geoPoint": {
            "lat": 52.26594,
            "lon": 10.52673
          }
        },
        {
          "facility": "Priv.-Doz. Hals-Nasen-Ohrenheilkunde plastische Operationen Allergologie",
          "city": "Darmstadt",
          "zip": "64283",
          "country": "Germany",
          "geoPoint": {
            "lat": 49.87167,
            "lon": 8.65027
          }
        },
        {
          "facility": "Allergologie Dorsten",
          "city": "Dorsten",
          "zip": "46284",
          "country": "Germany",
          "geoPoint": {
            "lat": 51.66166,
            "lon": 6.96514
          }
        },
        {
          "facility": "Hals, Nasen- u. Ohrenheilkunde Dortmund",
          "city": "Dortmund",
          "zip": "44388",
          "country": "Germany",
          "geoPoint": {
            "lat": 51.51494,
            "lon": 7.466
          }
        },
        {
          "facility": "Hals, Nasen- u. Ohrenheilkunde Duisburg",
          "city": "Duisburg",
          "zip": "47179",
          "country": "Germany",
          "geoPoint": {
            "lat": 51.43247,
            "lon": 6.76516
          }
        },
        {
          "facility": "Medi-Center Düren",
          "city": "Düren",
          "zip": "52351",
          "country": "Germany",
          "geoPoint": {
            "lat": 50.80434,
            "lon": 6.49299
          }
        },
        {
          "facility": "Hals, Nasen- u. Ohrenheilkunde Düsseldorf",
          "city": "Düsseldorf",
          "zip": "40210",
          "country": "Germany",
          "geoPoint": {
            "lat": 51.22172,
            "lon": 6.77616
          }
        },
        {
          "facility": "Heinrich-Heine-Universität Düsseldorf, Hautklinik",
          "city": "Düsseldorf",
          "zip": "40225",
          "country": "Germany",
          "geoPoint": {
            "lat": 51.22172,
            "lon": 6.77616
          }
        },
        {
          "facility": "Universität Erlangen, Poliklinik für Kinder und Jugendliche",
          "city": "Erlangen",
          "zip": "91054",
          "country": "Germany",
          "geoPoint": {
            "lat": 49.59099,
            "lon": 11.00783
          }
        },
        {
          "facility": "Gemeinschaftspraxis Dr. M. Feldmann und Dr. N. Karadiakos",
          "city": "Essen",
          "zip": "45136",
          "country": "Germany",
          "geoPoint": {
            "lat": 51.45657,
            "lon": 7.01228
          }
        },
        {
          "facility": "Hals, Nasen- u. Ohrenheilkunde Essen",
          "city": "Essen",
          "zip": "45143",
          "country": "Germany",
          "geoPoint": {
            "lat": 51.45657,
            "lon": 7.01228
          }
        },
        {
          "facility": "Hals, Nasen- u. Ohrenheilkunde Essen",
          "city": "Essen",
          "zip": "45329",
          "country": "Germany",
          "geoPoint": {
            "lat": 51.45657,
            "lon": 7.01228
          }
        },
        {
          "facility": "Allergologie Gifhorn",
          "city": "Gifhorn-Winkel",
          "zip": "38518",
          "country": "Germany"
        },
        {
          "facility": "Drobnitzky Franz-Josef Dr.med. Kinderarzt-Allergologie und Frank-Peter Dr.med. Kinderarzt-Neonatologie Gemeinschaftspraxis",
          "city": "Gütersloh",
          "zip": "33332",
          "country": "Germany",
          "geoPoint": {
            "lat": 51.90693,
            "lon": 8.37853
          }
        },
        {
          "facility": "Klinik für Pneumologie, Intensiv- und Schlafmedizin Klinikum",
          "city": "Hanover",
          "zip": "30167",
          "country": "Germany",
          "geoPoint": {
            "lat": 52.37052,
            "lon": 9.73322
          }
        },
        {
          "facility": "Med.Hochschule Hannover, Kinderklinik",
          "city": "Hanover",
          "zip": "30625",
          "country": "Germany",
          "geoPoint": {
            "lat": 52.37052,
            "lon": 9.73322
          }
        },
        {
          "facility": "Allergologie Jülich",
          "city": "Jülich",
          "zip": "52428",
          "country": "Germany",
          "geoPoint": {
            "lat": 50.92149,
            "lon": 6.36267
          }
        },
        {
          "facility": "Allergologie Kassel",
          "city": "Kassel",
          "zip": "34117",
          "country": "Germany",
          "geoPoint": {
            "lat": 51.31667,
            "lon": 9.5
          }
        },
        {
          "facility": "HNO - Krefeld",
          "city": "Krefeld",
          "zip": "47807",
          "country": "Germany",
          "geoPoint": {
            "lat": 51.33645,
            "lon": 6.55381
          }
        },
        {
          "facility": "Hals, Nasen- u. Ohrenheilkunde Lüdenscheid",
          "city": "Lüdenscheid",
          "zip": "58511",
          "country": "Germany",
          "geoPoint": {
            "lat": 51.21977,
            "lon": 7.6273
          }
        },
        {
          "facility": "Allgemeinmedizin Stockach, Baden",
          "city": "Stockach",
          "zip": "78333",
          "country": "Germany",
          "geoPoint": {
            "lat": 47.85105,
            "lon": 9.0091
          }
        },
        {
          "facility": "Zentrum für Klinische Forschung, Helmholtzstrasse 8/1, 89081 Ulm, Germany",
          "city": "Ulm",
          "zip": "89081",
          "country": "Germany",
          "geoPoint": {
            "lat": 48.39841,
            "lon": 9.99155
          }
        },
        {
          "facility": "Gemeinschaftspraxis für HNO Heilkunde, Allergologie und plastische Chirurgie",
          "city": "Wiesbaden",
          "zip": "65183",
          "country": "Germany",
          "geoPoint": {
            "lat": 50.08601,
            "lon": 8.24435
          }
        },
        {
          "facility": "Hals, Nasen- u. Ohrenheilkunde Willich",
          "city": "Willich",
          "zip": "47877",
          "country": "Germany",
          "geoPoint": {
            "lat": 51.26371,
            "lon": 6.54734
          }
        },
        {
          "facility": "Gemeinschaftspraxis für Hals-Nasen-Ohrenheilkunde",
          "city": "Wuppertal",
          "zip": "42103",
          "country": "Germany",
          "geoPoint": {
            "lat": 51.25627,
            "lon": 7.14816
          }
        },
        {
          "facility": "Meander Medisch Centrum, lokatie Baarn, Afdeling KNO",
          "city": "Amersfoort",
          "zip": "3800 BM",
          "country": "Netherlands",
          "geoPoint": {
            "lat": 52.155,
            "lon": 5.3875
          }
        },
        {
          "facility": "Allergologen Maatschap Arnhem",
          "city": "Arnhem",
          "zip": "6224 BJ",
          "country": "Netherlands",
          "geoPoint": {
            "lat": 51.98,
            "lon": 5.91111
          }
        },
        {
          "facility": "Wilhelmina Ziekenhuis Assen, Afdeling KNO",
          "city": "Assen",
          "zip": "9401RK",
          "country": "Netherlands",
          "geoPoint": {
            "lat": 52.99667,
            "lon": 6.5625
          }
        },
        {
          "facility": "Vlietland Ziekenhuis, lokatie Schiedam, KNO",
          "city": "Schiedam",
          "zip": "3116 BA",
          "country": "Netherlands",
          "geoPoint": {
            "lat": 51.91917,
            "lon": 4.38889
          }
        },
        {
          "facility": "Medical University of Bialystok, Department of Pediatrics and Allergology",
          "city": "Bialystok",
          "zip": "15-274",
          "country": "Poland",
          "geoPoint": {
            "lat": 53.13333,
            "lon": 23.16433
          }
        },
        {
          "facility": "Medical University of Gdansk, Department of Allergology",
          "city": "Gdansk",
          "zip": "80-211",
          "country": "Poland",
          "geoPoint": {
            "lat": 54.35227,
            "lon": 18.64912
          }
        },
        {
          "facility": "FARMA-MED. Sp. z o. o.",
          "city": "Inowrocław",
          "zip": "88-100",
          "country": "Poland",
          "geoPoint": {
            "lat": 52.79886,
            "lon": 18.26387
          }
        },
        {
          "facility": "Jagiellonian University Medical College, Department of Allergy and Immunology",
          "city": "Krakow",
          "zip": "31-066",
          "country": "Poland",
          "geoPoint": {
            "lat": 50.06143,
            "lon": 19.93658
          }
        },
        {
          "facility": "Jagiellonian University Medical College, Department of Allergology and Dermatology",
          "city": "Krakow",
          "zip": "31-531",
          "country": "Poland",
          "geoPoint": {
            "lat": 50.06143,
            "lon": 19.93658
          }
        },
        {
          "facility": "Klinika Pneumonologii i Alergologii Uniwersytet Medyczny w Lodzi",
          "city": "Lodz",
          "zip": "90-153",
          "country": "Poland",
          "geoPoint": {
            "lat": 51.77058,
            "lon": 19.47395
          }
        },
        {
          "facility": "NZOZ Centrum Alergologii",
          "city": "Lodz",
          "zip": "90-553",
          "country": "Poland",
          "geoPoint": {
            "lat": 51.77058,
            "lon": 19.47395
          }
        },
        {
          "facility": "Medical University of Lodz, Department of Allergology and Pulmonology",
          "city": "Lodz",
          "zip": "91-153",
          "country": "Poland",
          "geoPoint": {
            "lat": 51.77058,
            "lon": 19.47395
          }
        },
        {
          "facility": "Medical University of Lodz, Department of Clinical Immunology and Allergy",
          "city": "Lodz",
          "zip": "92-213",
          "country": "Poland",
          "geoPoint": {
            "lat": 51.77058,
            "lon": 19.47395
          }
        },
        {
          "facility": "Medical University of Lodz, Department of Pediatrics and Allergology",
          "city": "Lodz",
          "zip": "93-513",
          "country": "Poland",
          "geoPoint": {
            "lat": 51.77058,
            "lon": 19.47395
          }
        },
        {
          "facility": "Medical University of Lublin, Department of Allergology and Immunotherapy",
          "city": "Lublin",
          "zip": "20-093",
          "country": "Poland",
          "geoPoint": {
            "lat": 51.25058,
            "lon": 22.57009
          }
        },
        {
          "facility": "Klinika Pneumonologii Onkologii i Alergologii SPSK Nr 4",
          "city": "Lublin",
          "zip": "20-954",
          "country": "Poland",
          "geoPoint": {
            "lat": 51.25058,
            "lon": 22.57009
          }
        },
        {
          "facility": "Oddzial Dzieciecy SPZOZ",
          "city": "Pabianice",
          "zip": "95-200",
          "country": "Poland",
          "geoPoint": {
            "lat": 51.66446,
            "lon": 19.35473
          }
        },
        {
          "facility": "Institute of Allergy and Lung Disease Rabka, Department of Allergology and Pneumonology",
          "city": "Rabka-Zdrój",
          "zip": "34-700",
          "country": "Poland",
          "geoPoint": {
            "lat": 49.60889,
            "lon": 19.96654
          }
        },
        {
          "facility": "Specjalistyczny Zespól Diagnostyczno-Konsultacyjny Problemów Alergii Emil Florkiewicz",
          "city": "Sieradz",
          "zip": "98-200",
          "country": "Poland",
          "geoPoint": {
            "lat": 51.59584,
            "lon": 18.73023
          }
        },
        {
          "facility": "Gabinet Lekarski Bozena Kubicka-Kozik Poradnia Alergologiczna",
          "city": "Tomaszów Mazowiecki",
          "zip": "97-200",
          "country": "Poland",
          "geoPoint": {
            "lat": 51.53131,
            "lon": 20.00855
          }
        },
        {
          "facility": "Specjalistyczny Niepubliczny Zaklad Leczenia Alergii i Diagnostyki Alergologicznej IRMED 2",
          "city": "Warsaw",
          "zip": "00-521",
          "country": "Poland",
          "geoPoint": {
            "lat": 52.22977,
            "lon": 21.01178
          }
        },
        {
          "facility": "Military Institute of the Health Services, Department of Infection Disease and Allergology",
          "city": "Warsaw",
          "zip": "00-909",
          "country": "Poland",
          "geoPoint": {
            "lat": 52.22977,
            "lon": 21.01178
          }
        },
        {
          "facility": "Military Institute of the Health Services, Department of Internal Disease Pulmonology and Allergology",
          "city": "Warsaw",
          "zip": "00-909",
          "country": "Poland",
          "geoPoint": {
            "lat": 52.22977,
            "lon": 21.01178
          }
        },
        {
          "facility": "Medical University of Wroclaw, Department of Internal Disease and Allergology",
          "city": "Wroclaw",
          "zip": "50-417",
          "country": "Poland",
          "geoPoint": {
            "lat": 51.10286,
            "lon": 17.03006
          }
        },
        {
          "facility": "Medical University of Silesia, Department of Internal Disease, Allergology and Clinical Immunology",
          "city": "Zabrze",
          "zip": "41-800",
          "country": "Poland",
          "geoPoint": {
            "lat": 50.32492,
            "lon": 18.78576
          }
        }
      ]
    }
  },
  "derivedSection": {
    "miscInfoModule": {
      "versionHolder": "2026-02-04"
    },
    "conditionBrowseModule": {
      "meshes": [
        {
          "id": "D006255",
          "term": "Rhinitis, Allergic, Seasonal"
        },
        {
          "id": "D003233",
          "term": "Conjunctivitis, Allergic"
        }
      ],
      "ancestors": [
        {
          "id": "D065631",
          "term": "Rhinitis, Allergic"
        },
        {
          "id": "D012220",
          "term": "Rhinitis"
        },
        {
          "id": "D009668",
          "term": "Nose Diseases"
        },
        {
          "id": "D012140",
          "term": "Respiratory Tract Diseases"
        },
        {
          "id": "D012130",
          "term": "Respiratory Hypersensitivity"
        },
        {
          "id": "D010038",
          "term": "Otorhinolaryngologic Diseases"
        },
        {
          "id": "D006969",
          "term": "Hypersensitivity, Immediate"
        },
        {
          "id": "D006967",
          "term": "Hypersensitivity"
        },
        {
          "id": "D007154",
          "term": "Immune System Diseases"
        },
        {
          "id": "D003231",
          "term": "Conjunctivitis"
        },
        {
          "id": "D003229",
          "term": "Conjunctival Diseases"
        },
        {
          "id": "D005128",
          "term": "Eye Diseases"
        }
      ]
    }
  },
  "hasResults": false
}