{
  "protocolSection": {
    "identificationModule": {
      "nctId": "NCT02293265",
      "orgStudyIdInfo": {
        "id": "201722"
      },
      "organization": {
        "fullName": "GlaxoSmithKline",
        "class": "INDUSTRY"
      },
      "briefTitle": "Cross-sectional Study for Identification and Description of Severe Asthma Patients",
      "officialTitle": "Identification and Description of Severe Asthma Patients in a Cross-sectional Study-the IDEAL Study"
    },
    "statusModule": {
      "statusVerifiedDate": "2016-03",
      "overallStatus": "COMPLETED",
      "expandedAccessInfo": {
        "hasExpandedAccess": false
      },
      "startDateStruct": {
        "date": "2014-12"
      },
      "primaryCompletionDateStruct": {
        "date": "2015-05",
        "type": "ACTUAL"
      },
      "completionDateStruct": {
        "date": "2015-05",
        "type": "ACTUAL"
      },
      "studyFirstSubmitDate": "2014-10-27",
      "studyFirstSubmitQcDate": "2014-11-13",
      "studyFirstPostDateStruct": {
        "date": "2014-11-18",
        "type": "ESTIMATED"
      },
      "lastUpdateSubmitDate": "2016-03-31",
      "lastUpdatePostDateStruct": {
        "date": "2016-04-04",
        "type": "ESTIMATED"
      }
    },
    "sponsorCollaboratorsModule": {
      "responsibleParty": {
        "type": "SPONSOR"
      },
      "leadSponsor": {
        "name": "GlaxoSmithKline",
        "class": "INDUSTRY"
      }
    },
    "oversightModule": {
      "oversightHasDmc": false
    },
    "descriptionModule": {
      "briefSummary": "This will be a non-drug interventional cross-sectional study, where the screening visit and study visit can occur on the same day. Investigational product will not be administered. Approximately 790 subjects with severe asthma will be screened to achieve a total of at least 750 evaluable study subjects. The study will not include a run-in or follow-up period. This study will provide a more reliable description of the severe asthma patient landscape with respect to the potential eligibility for treatment with mepolizumab, omalizumab, and reslizumab. This study aims to estimate the potential overlap of patients eligible for treatment with mepolizumab and those eligible for treatment with omalizumab and/or reslizumab. Additionally, the current study will also ascertain and describe reslizumab eligibility with respect to both mepolizumab and omalizumab, in the severe asthma patient population."
    },
    "conditionsModule": {
      "conditions": [
        "Asthma"
      ],
      "keywords": [
        "mepolizumab",
        "omalizumab",
        "SB-240563",
        "Severe Asthma",
        "reslizumab"
      ]
    },
    "designModule": {
      "studyType": "INTERVENTIONAL",
      "phases": [
        "PHASE3"
      ],
      "designInfo": {
        "allocation": "NA",
        "interventionModel": "SINGLE_GROUP",
        "maskingInfo": {
          "masking": "NONE"
        }
      },
      "enrollmentInfo": {
        "count": 767,
        "type": "ACTUAL"
      }
    },
    "armsInterventionsModule": {
      "armGroups": [
        {
          "label": "Non-drug interventional group",
          "type": "OTHER",
          "description": "All enrolled participants will provide a blood sample, spirometry , and feedback on their severe asthma symptoms via questionnaires, and health related quality of life and burden of illness through response to self-administered questionnaires. No investigational product will be administered to participants.",
          "interventionNames": [
            "Drug: Short Acting Beta Agonist (SABA)"
          ]
        }
      ],
      "interventions": [
        {
          "type": "DRUG",
          "name": "Short Acting Beta Agonist (SABA)",
          "description": "Participants requiring a spirometry measurement will be administered a SABA in a metered dose inhaler (MDI) during the reversibility assessments",
          "armGroupLabels": [
            "Non-drug interventional group"
          ]
        }
      ]
    },
    "outcomesModule": {
      "primaryOutcomes": [
        {
          "measure": "Number of severe asthma patients eligible for one or more biologic treatments for asthma",
          "description": "Biologic treatments for asthma will include mepolizumab (anti-Interleukin \\[IL\\] 5), omalizumab (anti-immunoglobulin E \\[IgE\\]), and reslizumab (anti-IL5).",
          "timeFrame": "Day 1"
        }
      ],
      "secondaryOutcomes": [
        {
          "measure": "Mean and median frequency of planned and unplanned asthma-related healthcare resource utilization in the prior 12 months",
          "timeFrame": "Day 1"
        },
        {
          "measure": "Mean and median Charlson Comorbidity Index score",
          "description": "The Charlson Comorbidity Index is a score that is based on age and the presence of 19 comorbidities. The mean and median Charlson Comorbidity Index score will be calculated and reported",
          "timeFrame": "Day 1"
        },
        {
          "measure": "Mean pre-bronchodilator forced expiratory volume in 1 sec (FEV1)/forced vital capacity (FVC) ratio",
          "description": "Spirometry assessment will be performed with mean pre- and post-bronchodilator FEV1/FVC, pre- and post-bronchodilator FEV1 and FVC, and airway reversibility",
          "timeFrame": "Day 1"
        },
        {
          "measure": "Mean post-bronchodilator FEV1/FVC ratio",
          "description": "Spirometry assessment will be performed with mean pre- and post-bronchodilator FEV1/FVC, pre- and post-bronchodilator FEV1 and FVC, and airway reversibility",
          "timeFrame": "Day 1"
        },
        {
          "measure": "Mean pre-bronchodilator FEV1",
          "description": "Spirometry assessment will be performed with mean pre- and post-bronchodilator FEV1/FVC, pre- and post-bronchodilator FEV1 and FVC, and airway reversibility",
          "timeFrame": "Day 1"
        },
        {
          "measure": "Mean post-bronchodilator FEV1",
          "description": "Spirometry assessment will be performed with mean pre- and post-bronchodilator FEV1/FVC, pre- and post-bronchodilator FEV1 and FVC, and airway reversibility",
          "timeFrame": "Day 1"
        },
        {
          "measure": "Mean pre-bronchodilator FVC",
          "description": "Spirometry assessment will be performed with mean pre- and post-bronchodilator FEV1/FVC, pre- and post-bronchodilator FEV1 and FVC, and airway reversibility",
          "timeFrame": "Day 1"
        },
        {
          "measure": "Mean post-bronchodilator FVC",
          "description": "Spirometry assessment will be performed with mean pre- and post-bronchodilator FEV1/FVC, pre- and post-bronchodilator FEV1 and FVC, and airway reversibility",
          "timeFrame": "Day 1"
        },
        {
          "measure": "Mean and median levels of blood eosinophils",
          "timeFrame": "Day 1"
        },
        {
          "measure": "Mean and median levels of total IgE",
          "timeFrame": "Day 1"
        },
        {
          "measure": "Mean and median levels of specific IgE",
          "timeFrame": "Day 1"
        },
        {
          "measure": "Descriptive statistics for asthma Control Questionnaire (ACQ-5)",
          "timeFrame": "Day 1"
        },
        {
          "measure": "Descriptive statistics for St. George's Respiratory Questionnaire (SGRQ)",
          "timeFrame": "Day 1"
        },
        {
          "measure": "Descriptive statistics for Asthma Quality of Life Questionnaire (AQLQ-S)",
          "timeFrame": "Day 1"
        },
        {
          "measure": "Descriptive statistics for EuroQol 5D (EQ-5D-5L)",
          "timeFrame": "Day 1"
        },
        {
          "measure": "Descriptive statistics for Work Productivity and Activity Impairment Index: General Health (WPAI-GH)",
          "timeFrame": "Day 1"
        },
        {
          "measure": "Descriptive statistics for Asthma Symptom Utility Index (ASUI)",
          "timeFrame": "Day 1"
        }
      ]
    },
    "eligibilityModule": {
      "eligibilityCriteria": "Inclusion Criteria:\n\n* At least 12 years of age at study visit.\n* Participants eligible for enrolment and entry into the study must meet the following definition of severe asthma, which is based on the definition of severe asthma described in the European Respiratory Society/ American Thoracic Society (ERS/ATS) Guidelines for severe asthma: Asthma which requires treatment with guideline suggested medications for Global Initiative for Asthma (GINA) steps 4-5 asthma for the previous year (i.e., at least 12 months).\n\nPatients must be treated with high dose ICS PLUS at least one of the following: LABA, leukotriene modifier, theophylline, or continuous or near continuous systemic corticosteroid (i.e., maintenance systemic corticosteroid for ≥50% of the previous year).\n\nSPECIAL CIRCUMSTANCE: If patient is on a fixed dose combination medication, then the maximum recommended dose of the ICS/LABA combination per local label is acceptable.\n\n* Able to give written informed consent prior to participation in the study, which will include the ability to comply with the requirements and restrictions listed in the consent form. Participants must be able to read, comprehend, and write at a level sufficient to complete study related materials. A parent or legal guardian must provide informed consent for participants less than 18 years of age at study visit (or less than minimum age to be considered an adult per local laws).\n\nExclusion Criteria:\n\nParticipants who have participated in an interventional clinical trial for asthma within the past 12 months prior to Visit 1 (NOTE: subjects participating in an observational study where an investigational product or procedure is not administered will not be subject to this exclusion criteria)",
      "healthyVolunteers": false,
      "sex": "ALL",
      "minimumAge": "12 Years",
      "stdAges": [
        "CHILD",
        "ADULT",
        "OLDER_ADULT"
      ]
    },
    "contactsLocationsModule": {
      "overallOfficials": [
        {
          "name": "GSK Clinical Trials",
          "affiliation": "GlaxoSmithKline",
          "role": "STUDY_DIRECTOR"
        }
      ],
      "locations": [
        {
          "facility": "GSK Investigational Site",
          "city": "Little Rock",
          "state": "Arkansas",
          "zip": "72205",
          "country": "United States",
          "geoPoint": {
            "lat": 34.74648,
            "lon": -92.28959
          }
        },
        {
          "facility": "GSK Investigational Site",
          "city": "Fresno",
          "state": "California",
          "zip": "93720",
          "country": "United States",
          "geoPoint": {
            "lat": 36.74773,
            "lon": -119.77237
          }
        },
        {
          "facility": "GSK Investigational Site",
          "city": "Los Angeles",
          "state": "California",
          "zip": "90025",
          "country": "United States",
          "geoPoint": {
            "lat": 34.05223,
            "lon": -118.24368
          }
        },
        {
          "facility": "GSK Investigational Site",
          "city": "Newport Beach",
          "state": "California",
          "zip": "92663",
          "country": "United States",
          "geoPoint": {
            "lat": 33.61891,
            "lon": -117.92895
          }
        },
        {
          "facility": "GSK Investigational Site",
          "city": "Riverside",
          "state": "California",
          "zip": "92506",
          "country": "United States",
          "geoPoint": {
            "lat": 33.95335,
            "lon": -117.39616
          }
        },
        {
          "facility": "GSK Investigational Site",
          "city": "Rolling Hills Estates",
          "state": "California",
          "zip": "90274",
          "country": "United States",
          "geoPoint": {
            "lat": 33.78779,
            "lon": -118.35813
          }
        },
        {
          "facility": "GSK Investigational Site",
          "city": "San Diego",
          "state": "California",
          "zip": "92123",
          "country": "United States",
          "geoPoint": {
            "lat": 32.71571,
            "lon": -117.16472
          }
        },
        {
          "facility": "GSK Investigational Site",
          "city": "Upland",
          "state": "California",
          "zip": "91786",
          "country": "United States",
          "geoPoint": {
            "lat": 34.09751,
            "lon": -117.64839
          }
        },
        {
          "facility": "GSK Investigational Site",
          "city": "Tallahassee",
          "state": "Florida",
          "zip": "32308",
          "country": "United States",
          "geoPoint": {
            "lat": 30.43826,
            "lon": -84.28073
          }
        },
        {
          "facility": "GSK Investigational Site",
          "city": "Owensboro",
          "state": "Kentucky",
          "zip": "42301",
          "country": "United States",
          "geoPoint": {
            "lat": 37.77422,
            "lon": -87.11333
          }
        },
        {
          "facility": "GSK Investigational Site",
          "city": "Baltimore",
          "state": "Maryland",
          "zip": "21236",
          "country": "United States",
          "geoPoint": {
            "lat": 39.29038,
            "lon": -76.61219
          }
        },
        {
          "facility": "GSK Investigational Site",
          "city": "Columbia",
          "state": "Maryland",
          "zip": "21044",
          "country": "United States",
          "geoPoint": {
            "lat": 39.24038,
            "lon": -76.83942
          }
        },
        {
          "facility": "GSK Investigational Site",
          "city": "Minneapolis",
          "state": "Minnesota",
          "zip": "55402",
          "country": "United States",
          "geoPoint": {
            "lat": 44.97997,
            "lon": -93.26384
          }
        },
        {
          "facility": "GSK Investigational Site",
          "city": "Plymouth",
          "state": "Minnesota",
          "zip": "55441",
          "country": "United States",
          "geoPoint": {
            "lat": 45.01052,
            "lon": -93.45551
          }
        },
        {
          "facility": "GSK Investigational Site",
          "city": "Corning",
          "state": "New York",
          "zip": "14830",
          "country": "United States",
          "geoPoint": {
            "lat": 42.14285,
            "lon": -77.05469
          }
        },
        {
          "facility": "GSK Investigational Site",
          "city": "Charlotte",
          "state": "North Carolina",
          "zip": "28277",
          "country": "United States",
          "geoPoint": {
            "lat": 35.22709,
            "lon": -80.84313
          }
        },
        {
          "facility": "GSK Investigational Site",
          "city": "Shelby",
          "state": "North Carolina",
          "zip": "28150",
          "country": "United States",
          "geoPoint": {
            "lat": 35.29235,
            "lon": -81.53565
          }
        },
        {
          "facility": "GSK Investigational Site",
          "city": "Cincinnati",
          "state": "Ohio",
          "zip": "45231",
          "country": "United States",
          "geoPoint": {
            "lat": 39.12711,
            "lon": -84.51439
          }
        },
        {
          "facility": "GSK Investigational Site",
          "city": "Medford",
          "state": "Oregon",
          "zip": "97504",
          "country": "United States",
          "geoPoint": {
            "lat": 42.32652,
            "lon": -122.87559
          }
        },
        {
          "facility": "GSK Investigational Site",
          "city": "Pittsburgh",
          "state": "Pennsylvania",
          "zip": "15241",
          "country": "United States",
          "geoPoint": {
            "lat": 40.44062,
            "lon": -79.99589
          }
        },
        {
          "facility": "GSK Investigational Site",
          "city": "Greenville",
          "state": "South Carolina",
          "zip": "29615",
          "country": "United States",
          "geoPoint": {
            "lat": 34.85262,
            "lon": -82.39401
          }
        },
        {
          "facility": "GSK Investigational Site",
          "city": "Coffs Harbour",
          "state": "New South Wales",
          "zip": "2450",
          "country": "Australia",
          "geoPoint": {
            "lat": -30.29626,
            "lon": 153.11351
          }
        },
        {
          "facility": "GSK Investigational Site",
          "city": "Sherwood Park",
          "state": "Alberta",
          "zip": "T8H 0N2",
          "country": "Canada",
          "geoPoint": {
            "lat": 53.51684,
            "lon": -113.3187
          }
        },
        {
          "facility": "GSK Investigational Site",
          "city": "Brampton",
          "state": "Ontario",
          "zip": "L6T 0G1",
          "country": "Canada",
          "geoPoint": {
            "lat": 43.68341,
            "lon": -79.76633
          }
        },
        {
          "facility": "GSK Investigational Site",
          "city": "Burlington",
          "state": "Ontario",
          "zip": "L7N 3V2",
          "country": "Canada",
          "geoPoint": {
            "lat": 43.38621,
            "lon": -79.83713
          }
        },
        {
          "facility": "GSK Investigational Site",
          "city": "Grimsby",
          "state": "Ontario",
          "zip": "L3M1P3",
          "country": "Canada",
          "geoPoint": {
            "lat": 43.20011,
            "lon": -79.56631
          }
        },
        {
          "facility": "GSK Investigational Site",
          "city": "London",
          "state": "Ontario",
          "zip": "N6A1V2",
          "country": "Canada",
          "geoPoint": {
            "lat": 42.98339,
            "lon": -81.23304
          }
        },
        {
          "facility": "GSK Investigational Site",
          "city": "Mississauga",
          "state": "Ontario",
          "zip": "L5A 3V4",
          "country": "Canada",
          "geoPoint": {
            "lat": 43.5789,
            "lon": -79.6583
          }
        },
        {
          "facility": "GSK Investigational Site",
          "city": "St-Charles-Borromée",
          "state": "Ontario",
          "zip": "J6E 2B4",
          "country": "Canada"
        },
        {
          "facility": "GSK Investigational Site",
          "city": "Toronto",
          "state": "Ontario",
          "zip": "M5G 1E2",
          "country": "Canada",
          "geoPoint": {
            "lat": 43.70643,
            "lon": -79.39864
          }
        },
        {
          "facility": "GSK Investigational Site",
          "city": "Toronto",
          "state": "Ontario",
          "zip": "M5T 3A9",
          "country": "Canada",
          "geoPoint": {
            "lat": 43.70643,
            "lon": -79.39864
          }
        },
        {
          "facility": "GSK Investigational Site",
          "city": "Windsor",
          "state": "Ontario",
          "zip": "N8X2G1",
          "country": "Canada",
          "geoPoint": {
            "lat": 42.30008,
            "lon": -83.01654
          }
        },
        {
          "facility": "GSK Investigational Site",
          "city": "Montreal",
          "state": "Quebec",
          "zip": "H4J 1C5",
          "country": "Canada",
          "geoPoint": {
            "lat": 45.50884,
            "lon": -73.58781
          }
        },
        {
          "facility": "GSK Investigational Site",
          "city": "Québec",
          "state": "Quebec",
          "zip": "G1V 4G5",
          "country": "Canada",
          "geoPoint": {
            "lat": 46.81228,
            "lon": -71.21454
          }
        },
        {
          "facility": "GSK Investigational Site",
          "city": "Québec",
          "state": "Quebec",
          "zip": "G1V 4M6",
          "country": "Canada",
          "geoPoint": {
            "lat": 46.81228,
            "lon": -71.21454
          }
        },
        {
          "facility": "GSK Investigational Site",
          "city": "Trois-Rivières",
          "state": "Quebec",
          "zip": "G8T 7A1",
          "country": "Canada",
          "geoPoint": {
            "lat": 46.34515,
            "lon": -72.5477
          }
        },
        {
          "facility": "GSK Investigational Site",
          "city": "Bayonne",
          "zip": "64109",
          "country": "France",
          "geoPoint": {
            "lat": 43.49316,
            "lon": -1.473
          }
        },
        {
          "facility": "GSK Investigational Site",
          "city": "Dijon",
          "zip": "21033",
          "country": "France",
          "geoPoint": {
            "lat": 47.31344,
            "lon": 5.01391
          }
        },
        {
          "facility": "GSK Investigational Site",
          "city": "Grenoble",
          "zip": "38043",
          "country": "France",
          "geoPoint": {
            "lat": 45.17869,
            "lon": 5.71479
          }
        },
        {
          "facility": "GSK Investigational Site",
          "city": "Lille",
          "zip": "59037",
          "country": "France",
          "geoPoint": {
            "lat": 50.63391,
            "lon": 3.05512
          }
        },
        {
          "facility": "GSK Investigational Site",
          "city": "Lyon",
          "zip": "69317",
          "country": "France",
          "geoPoint": {
            "lat": 45.74906,
            "lon": 4.84789
          }
        },
        {
          "facility": "GSK Investigational Site",
          "city": "Marseille",
          "zip": "13331",
          "country": "France",
          "geoPoint": {
            "lat": 43.29695,
            "lon": 5.38107
          }
        },
        {
          "facility": "GSK Investigational Site",
          "city": "Nantes",
          "zip": "44093",
          "country": "France",
          "geoPoint": {
            "lat": 47.21725,
            "lon": -1.55336
          }
        },
        {
          "facility": "GSK Investigational Site",
          "city": "Nantes",
          "zip": "44277",
          "country": "France",
          "geoPoint": {
            "lat": 47.21725,
            "lon": -1.55336
          }
        },
        {
          "facility": "GSK Investigational Site",
          "city": "Paris",
          "zip": "75877",
          "country": "France",
          "geoPoint": {
            "lat": 48.85341,
            "lon": 2.3488
          }
        },
        {
          "facility": "GSK Investigational Site",
          "city": "Pessac",
          "zip": "33604",
          "country": "France",
          "geoPoint": {
            "lat": 44.80565,
            "lon": -0.6324
          }
        },
        {
          "facility": "GSK Investigational Site",
          "city": "Reims",
          "zip": "51092",
          "country": "France",
          "geoPoint": {
            "lat": 49.26526,
            "lon": 4.02853
          }
        },
        {
          "facility": "GSK Investigational Site",
          "city": "Rouen",
          "zip": "76031",
          "country": "France",
          "geoPoint": {
            "lat": 49.44313,
            "lon": 1.09932
          }
        },
        {
          "facility": "GSK Investigational Site",
          "city": "Strasbourg",
          "zip": "67091",
          "country": "France",
          "geoPoint": {
            "lat": 48.58392,
            "lon": 7.74553
          }
        },
        {
          "facility": "GSK Investigational Site",
          "city": "Tarbes",
          "zip": "65013",
          "country": "France",
          "geoPoint": {
            "lat": 43.23407,
            "lon": 0.07139
          }
        },
        {
          "facility": "GSK Investigational Site",
          "city": "Villefranche-sur-Saône",
          "zip": "69655",
          "country": "France",
          "geoPoint": {
            "lat": 45.98967,
            "lon": 4.71961
          }
        },
        {
          "facility": "GSK Investigational Site",
          "city": "Gauting",
          "state": "Bavaria",
          "zip": "82131",
          "country": "Germany",
          "geoPoint": {
            "lat": 48.06919,
            "lon": 11.37703
          }
        },
        {
          "facility": "GSK Investigational Site",
          "city": "Munich",
          "state": "Bavaria",
          "zip": "80539",
          "country": "Germany",
          "geoPoint": {
            "lat": 48.13743,
            "lon": 11.57549
          }
        },
        {
          "facility": "GSK Investigational Site",
          "city": "Cottbus",
          "state": "Brandenburg",
          "zip": "03050",
          "country": "Germany",
          "geoPoint": {
            "lat": 51.75769,
            "lon": 14.32888
          }
        },
        {
          "facility": "GSK Investigational Site",
          "city": "Hamburg",
          "state": "Hamburg",
          "zip": "22299",
          "country": "Germany",
          "geoPoint": {
            "lat": 53.55073,
            "lon": 9.99302
          }
        },
        {
          "facility": "GSK Investigational Site",
          "city": "Leipzig",
          "state": "Saxony",
          "zip": "04103",
          "country": "Germany",
          "geoPoint": {
            "lat": 51.33962,
            "lon": 12.37129
          }
        },
        {
          "facility": "GSK Investigational Site",
          "city": "Leipzig",
          "state": "Saxony",
          "zip": "04357",
          "country": "Germany",
          "geoPoint": {
            "lat": 51.33962,
            "lon": 12.37129
          }
        },
        {
          "facility": "GSK Investigational Site",
          "city": "Lübeck",
          "state": "Schleswig-Holstein",
          "zip": "23552",
          "country": "Germany",
          "geoPoint": {
            "lat": 53.86893,
            "lon": 10.68729
          }
        },
        {
          "facility": "GSK Investigational Site",
          "city": "Schleswig",
          "state": "Schleswig-Holstein",
          "zip": "24837",
          "country": "Germany",
          "geoPoint": {
            "lat": 54.52021,
            "lon": 9.56829
          }
        },
        {
          "facility": "GSK Investigational Site",
          "city": "Berlin",
          "state": "State of Berlin",
          "zip": "10717",
          "country": "Germany",
          "geoPoint": {
            "lat": 52.52437,
            "lon": 13.41053
          }
        },
        {
          "facility": "GSK Investigational Site",
          "city": "Berlin",
          "state": "State of Berlin",
          "zip": "12157",
          "country": "Germany",
          "geoPoint": {
            "lat": 52.52437,
            "lon": 13.41053
          }
        },
        {
          "facility": "GSK Investigational Site",
          "city": "Berlin",
          "state": "State of Berlin",
          "zip": "12203",
          "country": "Germany",
          "geoPoint": {
            "lat": 52.52437,
            "lon": 13.41053
          }
        },
        {
          "facility": "GSK Investigational Site",
          "city": "Berlin",
          "state": "State of Berlin",
          "zip": "13086",
          "country": "Germany",
          "geoPoint": {
            "lat": 52.52437,
            "lon": 13.41053
          }
        },
        {
          "facility": "GSK Investigational Site",
          "city": "Berlin",
          "state": "State of Berlin",
          "zip": "13597",
          "country": "Germany",
          "geoPoint": {
            "lat": 52.52437,
            "lon": 13.41053
          }
        },
        {
          "facility": "GSK Investigational Site",
          "city": "Birmingham",
          "zip": "B15 2WB",
          "country": "United Kingdom",
          "geoPoint": {
            "lat": 52.48142,
            "lon": -1.89983
          }
        },
        {
          "facility": "GSK Investigational Site",
          "city": "Birmingham",
          "zip": "B18 7QH",
          "country": "United Kingdom",
          "geoPoint": {
            "lat": 52.48142,
            "lon": -1.89983
          }
        },
        {
          "facility": "GSK Investigational Site",
          "city": "Cambridge",
          "zip": "CB2 2XY",
          "country": "United Kingdom",
          "geoPoint": {
            "lat": 52.2,
            "lon": 0.11667
          }
        },
        {
          "facility": "GSK Investigational Site",
          "city": "Crawley",
          "zip": "RH10 7DX",
          "country": "United Kingdom",
          "geoPoint": {
            "lat": 51.11303,
            "lon": -0.18312
          }
        },
        {
          "facility": "GSK Investigational Site",
          "city": "Liverpool",
          "zip": "L12 2AP",
          "country": "United Kingdom",
          "geoPoint": {
            "lat": 53.41058,
            "lon": -2.97794
          }
        },
        {
          "facility": "GSK Investigational Site",
          "city": "London",
          "zip": "SW17 0RE",
          "country": "United Kingdom",
          "geoPoint": {
            "lat": 51.50853,
            "lon": -0.12574
          }
        },
        {
          "facility": "GSK Investigational Site",
          "city": "Middlesbrough",
          "zip": "TS4 3BW",
          "country": "United Kingdom",
          "geoPoint": {
            "lat": 54.57623,
            "lon": -1.23483
          }
        },
        {
          "facility": "GSK Investigational Site",
          "city": "Radstock, Bath",
          "zip": "BA3 2UH",
          "country": "United Kingdom"
        },
        {
          "facility": "GSK Investigational Site",
          "city": "Salford",
          "zip": "M6 8HD",
          "country": "United Kingdom",
          "geoPoint": {
            "lat": 53.48771,
            "lon": -2.29042
          }
        },
        {
          "facility": "GSK Investigational Site",
          "city": "Trowbridge",
          "zip": "BA14 9AR",
          "country": "United Kingdom",
          "geoPoint": {
            "lat": 51.31889,
            "lon": -2.20861
          }
        }
      ]
    },
    "referencesModule": {
      "references": [
        {
          "pmid": "31874051",
          "type": "DERIVED",
          "citation": "Mullerova H, Cockle SM, Gunsoy NB, Nelsen LM, Albers FC. Clinical characteristics and burden of illness among adolescent and adult patients with severe asthma by asthma control: the IDEAL study. J Asthma. 2021 Apr;58(4):459-470. doi: 10.1080/02770903.2019.1708095. Epub 2020 Jan 9."
        },
        {
          "pmid": "31251094",
          "type": "DERIVED",
          "citation": "Nelsen LM, Cockle SM, Gunsoy NB, Jones P, Albers FC, Bradford ES, Mullerova H. Impact of exacerbations on St George's Respiratory Questionnaire score in patients with severe asthma: post hoc analyses of two clinical trials and an observational study. J Asthma. 2020 Sep;57(9):1006-1016. doi: 10.1080/02770903.2019.1630640. Epub 2019 Jun 28."
        },
        {
          "pmid": "28622052",
          "type": "DERIVED",
          "citation": "Albers FC, Mullerova H, Gunsoy NB, Shin JY, Nelsen LM, Bradford ES, Cockle SM, Suruki RY. Biologic treatment eligibility for real-world patients with severe asthma: The IDEAL study. J Asthma. 2018 Feb;55(2):152-160. doi: 10.1080/02770903.2017.1322611. Epub 2017 Jun 16."
        }
      ]
    }
  },
  "annotationSection": {
    "annotationModule": {
      "unpostedAnnotation": {
        "unpostedResponsibleParty": "GlaxoSmithKline",
        "unpostedEvents": [
          {
            "type": "RELEASE",
            "date": "2017-04-04"
          },
          {
            "type": "RESET",
            "date": "2017-05-12"
          },
          {
            "type": "RELEASE",
            "date": "2017-06-06"
          },
          {
            "type": "UNRELEASE",
            "dateUnknown": true
          },
          {
            "type": "RELEASE",
            "date": "2017-09-21"
          },
          {
            "type": "UNRELEASE",
            "dateUnknown": true
          },
          {
            "type": "RELEASE",
            "date": "2017-12-19"
          },
          {
            "type": "UNRELEASE",
            "dateUnknown": true
          },
          {
            "type": "RELEASE",
            "date": "2018-02-01"
          },
          {
            "type": "UNRELEASE",
            "date": "2018-08-15"
          }
        ]
      }
    }
  },
  "derivedSection": {
    "miscInfoModule": {
      "versionHolder": "2026-02-04",
      "submissionTracking": {
        "estimatedResultsFirstSubmitDate": "2017-04-04",
        "submissionInfos": [
          {
            "releaseDate": "2017-04-04",
            "resetDate": "2017-05-12"
          },
          {
            "releaseDate": "2017-06-06",
            "unreleaseDateUnknown": true
          },
          {
            "releaseDate": "2017-09-21",
            "unreleaseDateUnknown": true
          },
          {
            "releaseDate": "2017-12-19",
            "unreleaseDateUnknown": true
          },
          {
            "releaseDate": "2018-02-01",
            "unreleaseDate": "2018-08-15"
          }
        ]
      }
    },
    "conditionBrowseModule": {
      "meshes": [
        {
          "id": "D001249",
          "term": "Asthma"
        }
      ],
      "ancestors": [
        {
          "id": "D001982",
          "term": "Bronchial Diseases"
        },
        {
          "id": "D012140",
          "term": "Respiratory Tract Diseases"
        },
        {
          "id": "D008173",
          "term": "Lung Diseases, Obstructive"
        },
        {
          "id": "D008171",
          "term": "Lung Diseases"
        },
        {
          "id": "D012130",
          "term": "Respiratory Hypersensitivity"
        },
        {
          "id": "D006969",
          "term": "Hypersensitivity, Immediate"
        },
        {
          "id": "D006967",
          "term": "Hypersensitivity"
        },
        {
          "id": "D007154",
          "term": "Immune System Diseases"
        }
      ]
    }
  },
  "hasResults": false
}