{
  "protocolSection": {
    "identificationModule": {
      "nctId": "NCT06868277",
      "orgStudyIdInfo": {
        "id": "D702GC00001"
      },
      "secondaryIdInfos": [
        {
          "id": "2024-517780-24-00",
          "type": "REGISTRY",
          "domain": "CTIS (EU)"
        }
      ],
      "organization": {
        "fullName": "AstraZeneca",
        "class": "INDUSTRY"
      },
      "briefTitle": "A Global Phase III Study of Rilvegostomig or Pembrolizumab Monotherapy for First-Line Treatment of PD-L1-high Metastatic Non-small Cell Lung Cancer",
      "officialTitle": "A Phase III, Randomized, Double-blind, Multicenter, Global Study of Rilvegostomig or Pembrolizumab Monotherapy for the First-line Treatment of Patients With PD-L1-high Metastatic Non-small Cell Lung Cancer (ARTEMIDE-Lung04)",
      "acronym": "ARTEMIDELung04"
    },
    "statusModule": {
      "statusVerifiedDate": "2026-01",
      "overallStatus": "RECRUITING",
      "expandedAccessInfo": {
        "hasExpandedAccess": false
      },
      "startDateStruct": {
        "date": "2025-04-10",
        "type": "ACTUAL"
      },
      "primaryCompletionDateStruct": {
        "date": "2030-01-17",
        "type": "ESTIMATED"
      },
      "completionDateStruct": {
        "date": "2030-12-02",
        "type": "ESTIMATED"
      },
      "studyFirstSubmitDate": "2025-03-07",
      "studyFirstSubmitQcDate": "2025-03-07",
      "studyFirstPostDateStruct": {
        "date": "2025-03-10",
        "type": "ACTUAL"
      },
      "lastUpdateSubmitDate": "2026-01-12",
      "lastUpdatePostDateStruct": {
        "date": "2026-01-13",
        "type": "ACTUAL"
      }
    },
    "sponsorCollaboratorsModule": {
      "responsibleParty": {
        "type": "SPONSOR"
      },
      "leadSponsor": {
        "name": "AstraZeneca",
        "class": "INDUSTRY"
      }
    },
    "oversightModule": {
      "oversightHasDmc": true,
      "isFdaRegulatedDrug": true,
      "isFdaRegulatedDevice": false
    },
    "descriptionModule": {
      "briefSummary": "The purpose of ARTEMIDE-Lung04 is to assess the efficacy and safety of rilvegostomig compared with pembrolizumab monotherapy as 1L treatment in participants with mNSCLC and whose tumors express PD-L1.",
      "detailedDescription": "This is a Phase III, two-arm, randomized, double-blind, global, multicenter study assessing the efficacy and safety of rilvegostomig compared to pembrolizumab as a 1L treatment for patients with mNSCLC whose tumors express PD-L1."
    },
    "conditionsModule": {
      "conditions": [
        "Carcinoma, Non-Small Cell Lung"
      ],
      "keywords": [
        "ARTEMIDE-Lung04",
        "Rilvegostomig (AZD2936)",
        "Non-small cell lung cancer (NSCLC)",
        "Bi-specific antibody",
        "T-cell immunoglobulin and immunoreceptor tyrosine-based inhibitory motif domain (TIGIT)",
        "EGFR, ALK and ROS1 testing",
        "Programmed cell death protein (PD-L1)",
        "Pembrolizumab"
      ]
    },
    "designModule": {
      "studyType": "INTERVENTIONAL",
      "phases": [
        "PHASE3"
      ],
      "designInfo": {
        "allocation": "RANDOMIZED",
        "interventionModel": "PARALLEL",
        "interventionModelDescription": "Participants will be randomized in a 1:1 ratio to one of the following intervention arms:\n\nArm A : Rilvegostomig Arm B : Pembrolizumab",
        "primaryPurpose": "TREATMENT",
        "maskingInfo": {
          "masking": "QUADRUPLE",
          "maskingDescription": "Double blind masking",
          "whoMasked": [
            "PARTICIPANT",
            "CARE_PROVIDER",
            "INVESTIGATOR",
            "OUTCOMES_ASSESSOR"
          ]
        }
      },
      "enrollmentInfo": {
        "count": 830,
        "type": "ESTIMATED"
      }
    },
    "armsInterventionsModule": {
      "armGroups": [
        {
          "label": "Arm A",
          "type": "EXPERIMENTAL",
          "description": "Drug: rilvegostomig",
          "interventionNames": [
            "Biological: Rilvegostomig"
          ]
        },
        {
          "label": "Arm B",
          "type": "ACTIVE_COMPARATOR",
          "description": "Drug: Pembrolizumab",
          "interventionNames": [
            "Biological: Pembrolizumab"
          ]
        }
      ],
      "interventions": [
        {
          "type": "BIOLOGICAL",
          "name": "Rilvegostomig",
          "description": "Administered intravenously (IV) on Day 1 of each 21-day cycle",
          "armGroupLabels": [
            "Arm A"
          ],
          "otherNames": [
            "AZD2936"
          ]
        },
        {
          "type": "BIOLOGICAL",
          "name": "Pembrolizumab",
          "description": "Administered intravenously (IV) on Day 1 of each 21-day cycle",
          "armGroupLabels": [
            "Arm B"
          ],
          "otherNames": [
            "KEYTRUDA"
          ]
        }
      ]
    },
    "outcomesModule": {
      "primaryOutcomes": [
        {
          "measure": "Overall Survival (OS)",
          "description": "OS is defined as the time from randomization until the date of death due to any cause.",
          "timeFrame": "Up to approximately 5 years"
        },
        {
          "measure": "Progression-Free Survival (PFS)",
          "description": "PFS is defined as the time from randomization until radiological progression per RECIST 1.1 or death due to any cause (in the absence of progression).",
          "timeFrame": "Up to approximately 5 years"
        }
      ],
      "secondaryOutcomes": [
        {
          "measure": "Landmark Overall Survival (OS) rates",
          "description": "OS is defined as the time from randomization until the date of death due to any cause.",
          "timeFrame": "Up to approximately 5 years"
        },
        {
          "measure": "Landmark Progression-Free Survival (PFS) rates",
          "description": "PFS is defined as the time from randomization until radiological progression per RECIST 1.1 or death due to any cause (in the absence of progression).",
          "timeFrame": "Up to approximately 5 years"
        },
        {
          "measure": "Objective Response Rate (ORR)",
          "description": "ORR is defined as the proportion of participants who have a confirmed CR or confirmed PR, using RECIST 1.1.",
          "timeFrame": "Up to approximately 5 years"
        },
        {
          "measure": "Duration of Response (DoR)",
          "description": "DoR is defined as the time from the date of first documented response until the date of documented progression using RECIST 1.1 or death due to any cause (in the absence of progression).",
          "timeFrame": "Up to approximately 5 years"
        },
        {
          "measure": "Time to second progression or death (PFS2)",
          "description": "PFS2 is defined as the time from randomization until the earliest of the progression event (following the initial investigator-assessed progression event), after the start of the first subsequent therapy, or death from any cause, whichever occurs first.",
          "timeFrame": "Up to approximately 5 years"
        },
        {
          "measure": "Pharmakokinetics (PK) of rilvegostomig",
          "description": "Concentration of rilvegostomig in serum",
          "timeFrame": "Up to approximately 5 years"
        },
        {
          "measure": "Immunogenicity of rilvegostomig",
          "description": "Presence of antidrug antibodies (ADAs), titer, and neutralizing antibodies for rilvegostomig.",
          "timeFrame": "Up to approximately 5 years"
        },
        {
          "measure": "Patient-reported physical functioning",
          "description": "Proportion of participants with maintained or improved physical functioning as measured by Patient-Reported Outcomes Measurement Information System Physical Function - Short Form 8c - 7 day (PROMIS PF-SF 8c - 7 day) at each time point.",
          "timeFrame": "Up to approximately 5 years"
        },
        {
          "measure": "Patient-reported global health status (GHS)/quality of life (QoL)",
          "description": "Time to deterioration (TTD) of GHS/QoL as measured by the European Organization for Research and Treatment of Cancer Item Library 172 (EORTC IL172). TTD is defined as time from randomization to the date of first deterioration.",
          "timeFrame": "Up to approximately 5 years"
        },
        {
          "measure": "Patient-reported lung cancer symptoms of non-small cell lung cancer (NSCLC)",
          "description": "Time to deterioration (TTD) in pulmonary symptoms as measured by the Non-Small Cell Lung Cancer Symptom Assessment Questionnaire (NSCLC-SAQ).\n\nTTD is defined as time from randomization to the date of first deterioration.",
          "timeFrame": "Up to approximately 5 years"
        }
      ]
    },
    "eligibilityModule": {
      "eligibilityCriteria": "Inclusion Criteria:\n\n* Histologically or cytologically documented NSCLC (non small lung cancer), including all histological subtypes.\n* Stage IV mNSCLC (metastatic non-small cell lung cancer) (based on the American Joint Committee on Cancer Edition 8) not amenable to curative treatment.\n* Absence of sensitizing EGFR (epidermal growth factor) mutations and ALK (anaplastic lymphoma kinase) and ROS1 (c-ros oncogene 1) rearrangements. Negative assay result is required for all non-squamous histology subtypes.\n* Absence of documented tumor genomic mutation results from tests conducted as part of standard local practice in any other actionable driver oncogenes for which there are locally approved targeted 1L (first line) therapies.\n* WHO (World Health Organization)/ECOG (Eastern Cooperative Oncology Group) performance status of 0 or 1, with no deterioration over the previous 2 weeks prior to baseline at screening and prior to randomization.\n* Minimum life expectancy of 12 weeks.\n* Provision of acceptable tumor sample for the central testing prior to randomization.\n* At least one lesion not previously irradiated that qualifies as a RECIST 1.1 (Response Evaluation Criteria in Solid Tumors, Version 1.1) TL (target lesion) at baseline and can be accurately measured at baseline as ≥ 10 mm in the longest diameter (except lymph nodes, which must have short axis ≥ 15 mm) with CT (computed tomography) or MRI (magnetic resonance imaging) and is suitable for accurate repeated measurements.\n* Adequate organ and bone marrow function\n\nExclusion Criteria:\n\n* As judged by the investigator, any severe or uncontrolled systemic diseases, makes it undesirable for the participant to participate in the study or that would jeopardize compliance with the protocol.\n* History of organ transplant.\n* Active or prior documented autoimmune or inflammatory disorders requiring chronic treatment with steroids or other immunosuppressive treatment.\n* History of another primary malignancy except for malignancy treated with curative intent with no known active disease ≥ 2 years before the first dose of study intervention and of low potential risk for recurrence.\n* Presence of small cell and neuroendocrine histology components.\n* Brain metastases unless asymptomatic, stable, and not requiring steroids or anticonvulsants for at least 4 weeks prior to start of study intervention.\n* Active primary immunodeficiency/active infectious disease(s)\n* Active tuberculosis infection\n* Any prior systemic therapy received for advanced or mNSCLC (metastatic non-small cell lung cancer).\n* Any prior exposure to an anti-TIGIT (T-cell immunoglobulin and immunoreceptor tyrosine-based inhibitory motif domain) therapy or any other anticancer therapy targeting immune-regulatory receptors or mechanisms.\n* Any prior treatment with an anti-PD-1 (programmed cell death protein 1) or anti-PD-L1 (anti-programmed death-ligand 1) agent.",
      "healthyVolunteers": false,
      "sex": "ALL",
      "minimumAge": "18 Years",
      "stdAges": [
        "ADULT",
        "OLDER_ADULT"
      ]
    },
    "contactsLocationsModule": {
      "centralContacts": [
        {
          "name": "AstraZeneca Clinical Study Information Center",
          "role": "CONTACT",
          "phone": "1-877-240-9479",
          "email": "information.center@astrazeneca.com"
        }
      ],
      "locations": [
        {
          "facility": "Research Site",
          "status": "RECRUITING",
          "city": "Bay Pines",
          "state": "Florida",
          "zip": "33744",
          "country": "United States",
          "geoPoint": {
            "lat": 27.81419,
            "lon": -82.77816
          }
        },
        {
          "facility": "Research Site",
          "status": "RECRUITING",
          "city": "Clearwater",
          "state": "Florida",
          "zip": "33756",
          "country": "United States",
          "geoPoint": {
            "lat": 27.96585,
            "lon": -82.8001
          }
        },
        {
          "facility": "Research Site",
          "status": "RECRUITING",
          "city": "St. Petersburg",
          "state": "Florida",
          "zip": "33705",
          "country": "United States",
          "geoPoint": {
            "lat": 27.77086,
            "lon": -82.67927
          }
        },
        {
          "facility": "Research Site",
          "status": "RECRUITING",
          "city": "Marietta",
          "state": "Georgia",
          "zip": "30060",
          "country": "United States",
          "geoPoint": {
            "lat": 33.9526,
            "lon": -84.54993
          }
        },
        {
          "facility": "Research Site",
          "status": "NOT_YET_RECRUITING",
          "city": "Chicago",
          "state": "Illinois",
          "zip": "60612",
          "country": "United States",
          "geoPoint": {
            "lat": 41.85003,
            "lon": -87.65005
          }
        },
        {
          "facility": "Research Site",
          "status": "RECRUITING",
          "city": "Decatur",
          "state": "Illinois",
          "zip": "62526",
          "country": "United States",
          "geoPoint": {
            "lat": 39.84031,
            "lon": -88.9548
          }
        },
        {
          "facility": "Research Site",
          "status": "RECRUITING",
          "city": "Des Moines",
          "state": "Iowa",
          "zip": "50309",
          "country": "United States",
          "geoPoint": {
            "lat": 41.60054,
            "lon": -93.60911
          }
        },
        {
          "facility": "Research Site",
          "status": "NOT_YET_RECRUITING",
          "city": "Waterloo",
          "state": "Iowa",
          "zip": "50702",
          "country": "United States",
          "geoPoint": {
            "lat": 42.49276,
            "lon": -92.34296
          }
        },
        {
          "facility": "Research Site",
          "status": "RECRUITING",
          "city": "Leawood",
          "state": "Kansas",
          "zip": "66209",
          "country": "United States",
          "geoPoint": {
            "lat": 38.96667,
            "lon": -94.6169
          }
        },
        {
          "facility": "Research Site",
          "status": "NOT_YET_RECRUITING",
          "city": "Lexington",
          "state": "Kentucky",
          "zip": "40536",
          "country": "United States",
          "geoPoint": {
            "lat": 37.98869,
            "lon": -84.47772
          }
        },
        {
          "facility": "Research Site",
          "status": "RECRUITING",
          "city": "Bethesda",
          "state": "Maryland",
          "zip": "20817",
          "country": "United States",
          "geoPoint": {
            "lat": 38.98067,
            "lon": -77.10026
          }
        },
        {
          "facility": "Research Site",
          "status": "RECRUITING",
          "city": "Frederick",
          "state": "Maryland",
          "zip": "21702",
          "country": "United States",
          "geoPoint": {
            "lat": 39.41427,
            "lon": -77.41054
          }
        },
        {
          "facility": "Research Site",
          "status": "RECRUITING",
          "city": "Silver Spring",
          "state": "Maryland",
          "zip": "20910",
          "country": "United States",
          "geoPoint": {
            "lat": 38.99067,
            "lon": -77.02609
          }
        },
        {
          "facility": "Research Site",
          "status": "RECRUITING",
          "city": "Towson",
          "state": "Maryland",
          "zip": "21204",
          "country": "United States",
          "geoPoint": {
            "lat": 39.4015,
            "lon": -76.60191
          }
        },
        {
          "facility": "Research Site",
          "status": "RECRUITING",
          "city": "Bridgeton",
          "state": "Missouri",
          "zip": "63044",
          "country": "United States",
          "geoPoint": {
            "lat": 38.767,
            "lon": -90.41151
          }
        },
        {
          "facility": "Research Site",
          "status": "RECRUITING",
          "city": "Lincoln",
          "state": "Nebraska",
          "zip": "68506",
          "country": "United States",
          "geoPoint": {
            "lat": 40.8,
            "lon": -96.66696
          }
        },
        {
          "facility": "Research Site",
          "status": "NOT_YET_RECRUITING",
          "city": "Paramus",
          "state": "New Jersey",
          "zip": "07652",
          "country": "United States",
          "geoPoint": {
            "lat": 40.94454,
            "lon": -74.07542
          }
        },
        {
          "facility": "Research Site",
          "status": "NOT_YET_RECRUITING",
          "city": "Buffalo",
          "state": "New York",
          "zip": "14215",
          "country": "United States",
          "geoPoint": {
            "lat": 42.88645,
            "lon": -78.87837
          }
        },
        {
          "facility": "Research Site",
          "status": "RECRUITING",
          "city": "East Syracuse",
          "state": "New York",
          "zip": "13057",
          "country": "United States",
          "geoPoint": {
            "lat": 43.06534,
            "lon": -76.07853
          }
        },
        {
          "facility": "Research Site",
          "status": "NOT_YET_RECRUITING",
          "city": "Fresh Meadows",
          "state": "New York",
          "zip": "11366",
          "country": "United States",
          "geoPoint": {
            "lat": 40.73482,
            "lon": -73.79347
          }
        },
        {
          "facility": "Research Site",
          "status": "RECRUITING",
          "city": "Westbury",
          "state": "New York",
          "zip": "11590",
          "country": "United States",
          "geoPoint": {
            "lat": 40.75566,
            "lon": -73.58763
          }
        },
        {
          "facility": "Research Site",
          "status": "NOT_YET_RECRUITING",
          "city": "Canton",
          "state": "Ohio",
          "zip": "44718",
          "country": "United States",
          "geoPoint": {
            "lat": 40.79895,
            "lon": -81.37845
          }
        },
        {
          "facility": "Research Site",
          "status": "RECRUITING",
          "city": "Fountain Hill",
          "state": "Pennsylvania",
          "zip": "18015",
          "country": "United States",
          "geoPoint": {
            "lat": 40.60149,
            "lon": -75.39518
          }
        },
        {
          "facility": "Research Site",
          "status": "NOT_YET_RECRUITING",
          "city": "Kittanning",
          "state": "Pennsylvania",
          "zip": "16201",
          "country": "United States",
          "geoPoint": {
            "lat": 40.81645,
            "lon": -79.52199
          }
        },
        {
          "facility": "Research Site",
          "status": "RECRUITING",
          "city": "Philadelphia",
          "state": "Pennsylvania",
          "zip": "19104",
          "country": "United States",
          "geoPoint": {
            "lat": 39.95238,
            "lon": -75.16362
          }
        },
        {
          "facility": "Research Site",
          "status": "NOT_YET_RECRUITING",
          "city": "Round Rock",
          "state": "Texas",
          "zip": "78665",
          "country": "United States",
          "geoPoint": {
            "lat": 30.50826,
            "lon": -97.6789
          }
        },
        {
          "facility": "Research Site",
          "status": "NOT_YET_RECRUITING",
          "city": "Aberdeen",
          "state": "Washington",
          "zip": "98520",
          "country": "United States",
          "geoPoint": {
            "lat": 46.97537,
            "lon": -123.81572
          }
        },
        {
          "facility": "Research Site",
          "status": "NOT_YET_RECRUITING",
          "city": "Charleston",
          "state": "West Virginia",
          "zip": "25304",
          "country": "United States",
          "geoPoint": {
            "lat": 38.34982,
            "lon": -81.63262
          }
        },
        {
          "facility": "Research Site",
          "status": "NOT_YET_RECRUITING",
          "city": "Morgantown",
          "state": "West Virginia",
          "zip": "26506",
          "country": "United States",
          "geoPoint": {
            "lat": 39.62953,
            "lon": -79.9559
          }
        },
        {
          "facility": "Research Site",
          "status": "NOT_YET_RECRUITING",
          "city": "CABA",
          "zip": "1425",
          "country": "Argentina"
        },
        {
          "facility": "Research Site",
          "status": "NOT_YET_RECRUITING",
          "city": "Córdoba",
          "zip": "5000",
          "country": "Argentina",
          "geoPoint": {
            "lat": -31.40648,
            "lon": -64.18853
          }
        },
        {
          "facility": "Research Site",
          "status": "NOT_YET_RECRUITING",
          "city": "Rosario",
          "zip": "2000",
          "country": "Argentina",
          "geoPoint": {
            "lat": -32.94682,
            "lon": -60.63932
          }
        },
        {
          "facility": "Research Site",
          "status": "NOT_YET_RECRUITING",
          "city": "Viedma",
          "zip": "R8500ACE",
          "country": "Argentina",
          "geoPoint": {
            "lat": -40.81519,
            "lon": -63.0004
          }
        },
        {
          "facility": "Research Site",
          "status": "WITHDRAWN",
          "city": "Hobart",
          "zip": "7000",
          "country": "Australia",
          "geoPoint": {
            "lat": -42.87936,
            "lon": 147.32941
          }
        },
        {
          "facility": "Research Site",
          "status": "WITHDRAWN",
          "city": "Woolloongabba",
          "zip": "4102",
          "country": "Australia",
          "geoPoint": {
            "lat": -27.48855,
            "lon": 153.03655
          }
        },
        {
          "facility": "Research Site",
          "status": "RECRUITING",
          "city": "Edegem",
          "zip": "2650",
          "country": "Belgium",
          "geoPoint": {
            "lat": 51.15662,
            "lon": 4.44504
          }
        },
        {
          "facility": "Research Site",
          "status": "RECRUITING",
          "city": "Jette",
          "zip": "1090",
          "country": "Belgium",
          "geoPoint": {
            "lat": 50.87309,
            "lon": 4.33419
          }
        },
        {
          "facility": "Research Site",
          "status": "RECRUITING",
          "city": "Libramont-Chevigny",
          "zip": "6800",
          "country": "Belgium"
        },
        {
          "facility": "Research Site",
          "status": "RECRUITING",
          "city": "Liège",
          "zip": "4000",
          "country": "Belgium",
          "geoPoint": {
            "lat": 50.63373,
            "lon": 5.56749
          }
        },
        {
          "facility": "Research Site",
          "status": "RECRUITING",
          "city": "Mechelen",
          "zip": "2800",
          "country": "Belgium",
          "geoPoint": {
            "lat": 51.02574,
            "lon": 4.47762
          }
        },
        {
          "facility": "Research Site",
          "status": "RECRUITING",
          "city": "Roeselaere",
          "zip": "8800",
          "country": "Belgium"
        },
        {
          "facility": "Research Site",
          "status": "NOT_YET_RECRUITING",
          "city": "Blumenau",
          "zip": "89010-340",
          "country": "Brazil",
          "geoPoint": {
            "lat": -26.91944,
            "lon": -49.06611
          }
        },
        {
          "facility": "Research Site",
          "status": "NOT_YET_RECRUITING",
          "city": "Fortaleza",
          "zip": "60336-550",
          "country": "Brazil",
          "geoPoint": {
            "lat": -3.71722,
            "lon": -38.54306
          }
        },
        {
          "facility": "Research Site",
          "status": "NOT_YET_RECRUITING",
          "city": "Ijuí",
          "zip": "98700-000",
          "country": "Brazil",
          "geoPoint": {
            "lat": -28.38778,
            "lon": -53.91472
          }
        },
        {
          "facility": "Research Site",
          "status": "NOT_YET_RECRUITING",
          "city": "Itajaí",
          "zip": "88301-220",
          "country": "Brazil",
          "geoPoint": {
            "lat": -26.90778,
            "lon": -48.66194
          }
        },
        {
          "facility": "Research Site",
          "status": "NOT_YET_RECRUITING",
          "city": "Londrina",
          "zip": "86015-520",
          "country": "Brazil",
          "geoPoint": {
            "lat": -23.31028,
            "lon": -51.16278
          }
        },
        {
          "facility": "Research Site",
          "status": "NOT_YET_RECRUITING",
          "city": "Passo Fundo",
          "zip": "99010-260",
          "country": "Brazil",
          "geoPoint": {
            "lat": -28.26278,
            "lon": -52.40667
          }
        },
        {
          "facility": "Research Site",
          "status": "NOT_YET_RECRUITING",
          "city": "Porto Alegre",
          "zip": "90035-903",
          "country": "Brazil",
          "geoPoint": {
            "lat": -30.03283,
            "lon": -51.23019
          }
        },
        {
          "facility": "Research Site",
          "status": "NOT_YET_RECRUITING",
          "city": "Porto Alegre",
          "zip": "90610-000",
          "country": "Brazil",
          "geoPoint": {
            "lat": -30.03283,
            "lon": -51.23019
          }
        },
        {
          "facility": "Research Site",
          "status": "NOT_YET_RECRUITING",
          "city": "Porto Velho",
          "zip": "76834-899",
          "country": "Brazil",
          "geoPoint": {
            "lat": -8.76194,
            "lon": -63.90389
          }
        },
        {
          "facility": "Research Site",
          "status": "NOT_YET_RECRUITING",
          "city": "Salvador",
          "zip": "41253-190",
          "country": "Brazil",
          "geoPoint": {
            "lat": -12.97563,
            "lon": -38.49096
          }
        },
        {
          "facility": "Research Site",
          "status": "NOT_YET_RECRUITING",
          "city": "Salvador",
          "zip": "41950-640",
          "country": "Brazil",
          "geoPoint": {
            "lat": -12.97563,
            "lon": -38.49096
          }
        },
        {
          "facility": "Research Site",
          "status": "NOT_YET_RECRUITING",
          "city": "Santo André",
          "zip": "09060-650",
          "country": "Brazil",
          "geoPoint": {
            "lat": -23.66389,
            "lon": -46.53833
          }
        },
        {
          "facility": "Research Site",
          "status": "NOT_YET_RECRUITING",
          "city": "São Paulo",
          "zip": "01246-000",
          "country": "Brazil",
          "geoPoint": {
            "lat": -23.5475,
            "lon": -46.63611
          }
        },
        {
          "facility": "Research Site",
          "status": "NOT_YET_RECRUITING",
          "city": "São Paulo",
          "zip": "04501-000",
          "country": "Brazil",
          "geoPoint": {
            "lat": -23.5475,
            "lon": -46.63611
          }
        },
        {
          "facility": "Research Site",
          "status": "NOT_YET_RECRUITING",
          "city": "Teresina",
          "zip": "64049-200",
          "country": "Brazil",
          "geoPoint": {
            "lat": -5.08917,
            "lon": -42.80194
          }
        },
        {
          "facility": "Research Site",
          "status": "RECRUITING",
          "city": "Burgas",
          "zip": "8000",
          "country": "Bulgaria",
          "geoPoint": {
            "lat": 42.50651,
            "lon": 27.46886
          }
        },
        {
          "facility": "Research Site",
          "status": "NOT_YET_RECRUITING",
          "city": "Panagyurishte",
          "zip": "4500",
          "country": "Bulgaria",
          "geoPoint": {
            "lat": 42.49518,
            "lon": 24.19021
          }
        },
        {
          "facility": "Research Site",
          "status": "RECRUITING",
          "city": "Sofia",
          "zip": "1407",
          "country": "Bulgaria",
          "geoPoint": {
            "lat": 42.69751,
            "lon": 23.32415
          }
        },
        {
          "facility": "Research Site",
          "status": "RECRUITING",
          "city": "Sofia",
          "zip": "1618",
          "country": "Bulgaria",
          "geoPoint": {
            "lat": 42.69751,
            "lon": 23.32415
          }
        },
        {
          "facility": "Research Site",
          "status": "NOT_YET_RECRUITING",
          "city": "Sofia",
          "zip": "1756",
          "country": "Bulgaria",
          "geoPoint": {
            "lat": 42.69751,
            "lon": 23.32415
          }
        },
        {
          "facility": "Research Site",
          "status": "NOT_YET_RECRUITING",
          "city": "Varna",
          "zip": "9010",
          "country": "Bulgaria",
          "geoPoint": {
            "lat": 43.21912,
            "lon": 27.91024
          }
        },
        {
          "facility": "Research Site",
          "status": "NOT_YET_RECRUITING",
          "city": "Edmonton",
          "state": "Alberta",
          "zip": "T6G 1Z2",
          "country": "Canada",
          "geoPoint": {
            "lat": 53.55014,
            "lon": -113.46871
          }
        },
        {
          "facility": "Research Site",
          "status": "NOT_YET_RECRUITING",
          "city": "Kelowna",
          "state": "British Columbia",
          "zip": "V1Y 5L3",
          "country": "Canada",
          "geoPoint": {
            "lat": 49.88307,
            "lon": -119.48568
          }
        },
        {
          "facility": "Research Site",
          "status": "NOT_YET_RECRUITING",
          "city": "Cambridge",
          "state": "Ontario",
          "zip": "N1R 3G2",
          "country": "Canada",
          "geoPoint": {
            "lat": 43.3601,
            "lon": -80.31269
          }
        },
        {
          "facility": "Research Site",
          "status": "NOT_YET_RECRUITING",
          "city": "Newmarket",
          "state": "Ontario",
          "zip": "L3Y 2P9",
          "country": "Canada",
          "geoPoint": {
            "lat": 44.05011,
            "lon": -79.46631
          }
        },
        {
          "facility": "Research Site",
          "status": "NOT_YET_RECRUITING",
          "city": "Toronto",
          "state": "Ontario",
          "zip": "M4N 3M5",
          "country": "Canada",
          "geoPoint": {
            "lat": 43.70643,
            "lon": -79.39864
          }
        },
        {
          "facility": "Research Site",
          "status": "NOT_YET_RECRUITING",
          "city": "Québec",
          "state": "Quebec",
          "zip": "G1V 4G5",
          "country": "Canada",
          "geoPoint": {
            "lat": 46.81228,
            "lon": -71.21454
          }
        },
        {
          "facility": "Research Site",
          "status": "NOT_YET_RECRUITING",
          "city": "Saint-Jérôme",
          "state": "Quebec",
          "zip": "J7Z 5T3",
          "country": "Canada",
          "geoPoint": {
            "lat": 45.78036,
            "lon": -74.00365
          }
        },
        {
          "facility": "Research Site",
          "status": "NOT_YET_RECRUITING",
          "city": "Conception",
          "zip": "4070196",
          "country": "Chile"
        },
        {
          "facility": "Research Site",
          "status": "RECRUITING",
          "city": "Santiago",
          "zip": "7500653",
          "country": "Chile",
          "geoPoint": {
            "lat": -33.45694,
            "lon": -70.64827
          }
        },
        {
          "facility": "Research Site",
          "status": "RECRUITING",
          "city": "Santiago",
          "zip": "7500713",
          "country": "Chile",
          "geoPoint": {
            "lat": -33.45694,
            "lon": -70.64827
          }
        },
        {
          "facility": "Research Site",
          "status": "NOT_YET_RECRUITING",
          "city": "Santiago",
          "zip": "8420383",
          "country": "Chile",
          "geoPoint": {
            "lat": -33.45694,
            "lon": -70.64827
          }
        },
        {
          "facility": "Research Site",
          "status": "NOT_YET_RECRUITING",
          "city": "Baoding",
          "zip": "071000",
          "country": "China",
          "geoPoint": {
            "lat": 38.87288,
            "lon": 115.46246
          }
        },
        {
          "facility": "Research Site",
          "status": "RECRUITING",
          "city": "Beijing",
          "zip": "100021",
          "country": "China",
          "geoPoint": {
            "lat": 39.9075,
            "lon": 116.39723
          }
        },
        {
          "facility": "Research Site",
          "status": "NOT_YET_RECRUITING",
          "city": "Beijing",
          "zip": "100142",
          "country": "China",
          "geoPoint": {
            "lat": 39.9075,
            "lon": 116.39723
          }
        },
        {
          "facility": "Research Site",
          "status": "NOT_YET_RECRUITING",
          "city": "Beijing",
          "zip": "101149",
          "country": "China",
          "geoPoint": {
            "lat": 39.9075,
            "lon": 116.39723
          }
        },
        {
          "facility": "Research Site",
          "status": "RECRUITING",
          "city": "Bengbu",
          "zip": "233004",
          "country": "China",
          "geoPoint": {
            "lat": 32.94083,
            "lon": 117.36083
          }
        },
        {
          "facility": "Research Site",
          "status": "NOT_YET_RECRUITING",
          "city": "Changchun",
          "zip": "130000",
          "country": "China",
          "geoPoint": {
            "lat": 43.88,
            "lon": 125.32278
          }
        },
        {
          "facility": "Research Site",
          "status": "RECRUITING",
          "city": "Changchun",
          "zip": "130033",
          "country": "China",
          "geoPoint": {
            "lat": 43.88,
            "lon": 125.32278
          }
        },
        {
          "facility": "Research Site",
          "status": "NOT_YET_RECRUITING",
          "city": "Changsha",
          "zip": "410008",
          "country": "China",
          "geoPoint": {
            "lat": 28.19874,
            "lon": 112.97087
          }
        },
        {
          "facility": "Research Site",
          "status": "NOT_YET_RECRUITING",
          "city": "Changsha",
          "zip": "410013",
          "country": "China",
          "geoPoint": {
            "lat": 28.19874,
            "lon": 112.97087
          }
        },
        {
          "facility": "Research Site",
          "status": "RECRUITING",
          "city": "Chengdu",
          "zip": "610041",
          "country": "China",
          "geoPoint": {
            "lat": 30.66667,
            "lon": 104.06667
          }
        },
        {
          "facility": "Research Site",
          "status": "NOT_YET_RECRUITING",
          "city": "Chongqing",
          "zip": "400030",
          "country": "China",
          "geoPoint": {
            "lat": 29.56026,
            "lon": 106.55771
          }
        },
        {
          "facility": "Research Site",
          "status": "NOT_YET_RECRUITING",
          "city": "Chongqing",
          "zip": "400042",
          "country": "China",
          "geoPoint": {
            "lat": 29.56026,
            "lon": 106.55771
          }
        },
        {
          "facility": "Research Site",
          "status": "RECRUITING",
          "city": "Fuzhou",
          "zip": "350001",
          "country": "China",
          "geoPoint": {
            "lat": 26.06139,
            "lon": 119.30611
          }
        },
        {
          "facility": "Research Site",
          "status": "NOT_YET_RECRUITING",
          "city": "Fuzhou",
          "zip": "350014",
          "country": "China",
          "geoPoint": {
            "lat": 26.06139,
            "lon": 119.30611
          }
        },
        {
          "facility": "Research Site",
          "status": "RECRUITING",
          "city": "Guangzhou",
          "zip": "510080",
          "country": "China",
          "geoPoint": {
            "lat": 23.11667,
            "lon": 113.25
          }
        },
        {
          "facility": "Research Site",
          "status": "RECRUITING",
          "city": "Haerbin",
          "zip": "150081",
          "country": "China"
        },
        {
          "facility": "Research Site",
          "status": "NOT_YET_RECRUITING",
          "city": "Hangzhou",
          "zip": "310022",
          "country": "China",
          "geoPoint": {
            "lat": 30.29365,
            "lon": 120.16142
          }
        },
        {
          "facility": "Research Site",
          "status": "RECRUITING",
          "city": "Hefei",
          "zip": "133500",
          "country": "China",
          "geoPoint": {
            "lat": 31.86389,
            "lon": 117.28083
          }
        },
        {
          "facility": "Research Site",
          "status": "RECRUITING",
          "city": "Hefei",
          "zip": "230022",
          "country": "China",
          "geoPoint": {
            "lat": 31.86389,
            "lon": 117.28083
          }
        },
        {
          "facility": "Research Site",
          "status": "RECRUITING",
          "city": "Jiamusi",
          "zip": "154007",
          "country": "China",
          "geoPoint": {
            "lat": 46.79711,
            "lon": 130.31118
          }
        },
        {
          "facility": "Research Site",
          "status": "RECRUITING",
          "city": "Jinan",
          "zip": "250117",
          "country": "China",
          "geoPoint": {
            "lat": 36.66833,
            "lon": 116.99722
          }
        },
        {
          "facility": "Research Site",
          "status": "RECRUITING",
          "city": "Lanzhou",
          "zip": "730050",
          "country": "China",
          "geoPoint": {
            "lat": 36.05701,
            "lon": 103.83987
          }
        },
        {
          "facility": "Research Site",
          "status": "RECRUITING",
          "city": "Linyi",
          "zip": "276001",
          "country": "China",
          "geoPoint": {
            "lat": 35.06306,
            "lon": 118.34278
          }
        },
        {
          "facility": "Research Site",
          "status": "RECRUITING",
          "city": "Liuchow",
          "zip": "545007",
          "country": "China",
          "geoPoint": {
            "lat": 24.32405,
            "lon": 109.40698
          }
        },
        {
          "facility": "Research Site",
          "status": "NOT_YET_RECRUITING",
          "city": "Nanchang",
          "zip": "330006",
          "country": "China",
          "geoPoint": {
            "lat": 28.68396,
            "lon": 115.85306
          }
        },
        {
          "facility": "Research Site",
          "status": "RECRUITING",
          "city": "Nanchang",
          "zip": "330029",
          "country": "China",
          "geoPoint": {
            "lat": 28.68396,
            "lon": 115.85306
          }
        },
        {
          "facility": "Research Site",
          "status": "RECRUITING",
          "city": "Nanjing",
          "zip": "210006",
          "country": "China",
          "geoPoint": {
            "lat": 32.06167,
            "lon": 118.77778
          }
        },
        {
          "facility": "Research Site",
          "status": "RECRUITING",
          "city": "Nanjing",
          "zip": "210008",
          "country": "China",
          "geoPoint": {
            "lat": 32.06167,
            "lon": 118.77778
          }
        },
        {
          "facility": "Research Site",
          "status": "NOT_YET_RECRUITING",
          "city": "Nanning",
          "zip": "530021",
          "country": "China",
          "geoPoint": {
            "lat": 22.81667,
            "lon": 108.31667
          }
        },
        {
          "facility": "Research Site",
          "status": "RECRUITING",
          "city": "Ningbo",
          "zip": "315010",
          "country": "China",
          "geoPoint": {
            "lat": 29.87819,
            "lon": 121.54945
          }
        },
        {
          "facility": "Research Site",
          "status": "RECRUITING",
          "city": "Qingdao",
          "zip": "266071",
          "country": "China",
          "geoPoint": {
            "lat": 36.06488,
            "lon": 120.38042
          }
        },
        {
          "facility": "Research Site",
          "status": "NOT_YET_RECRUITING",
          "city": "Shanghai",
          "zip": "200092",
          "country": "China",
          "geoPoint": {
            "lat": 31.22222,
            "lon": 121.45806
          }
        },
        {
          "facility": "Research Site",
          "status": "NOT_YET_RECRUITING",
          "city": "Shenyang",
          "zip": "110042",
          "country": "China",
          "geoPoint": {
            "lat": 41.79222,
            "lon": 123.43278
          }
        },
        {
          "facility": "Research Site",
          "status": "RECRUITING",
          "city": "Suzhou",
          "zip": "215004",
          "country": "China",
          "geoPoint": {
            "lat": 31.30408,
            "lon": 120.59538
          }
        },
        {
          "facility": "Research Site",
          "status": "RECRUITING",
          "city": "Taiyuan",
          "zip": "030000",
          "country": "China",
          "geoPoint": {
            "lat": 37.86944,
            "lon": 112.56028
          }
        },
        {
          "facility": "Research Site",
          "status": "NOT_YET_RECRUITING",
          "city": "Wuhan",
          "zip": "430030",
          "country": "China",
          "geoPoint": {
            "lat": 30.58333,
            "lon": 114.26667
          }
        },
        {
          "facility": "Research Site",
          "status": "NOT_YET_RECRUITING",
          "city": "Wuhan",
          "zip": "430060",
          "country": "China",
          "geoPoint": {
            "lat": 30.58333,
            "lon": 114.26667
          }
        },
        {
          "facility": "Research Site",
          "status": "RECRUITING",
          "city": "Xuzhou",
          "zip": "221002",
          "country": "China",
          "geoPoint": {
            "lat": 34.20442,
            "lon": 117.28386
          }
        },
        {
          "facility": "Research Site",
          "status": "RECRUITING",
          "city": "Yantai",
          "zip": "264000",
          "country": "China",
          "geoPoint": {
            "lat": 37.47649,
            "lon": 121.44081
          }
        },
        {
          "facility": "Research Site",
          "status": "NOT_YET_RECRUITING",
          "city": "Zhengzhou",
          "zip": "450008",
          "country": "China",
          "geoPoint": {
            "lat": 34.75778,
            "lon": 113.64861
          }
        },
        {
          "facility": "Research Site",
          "status": "NOT_YET_RECRUITING",
          "city": "Cali",
          "zip": "760032",
          "country": "Colombia",
          "geoPoint": {
            "lat": 3.43054,
            "lon": -76.5199
          }
        },
        {
          "facility": "Research Site",
          "status": "NOT_YET_RECRUITING",
          "city": "Floridablanca",
          "zip": "680001",
          "country": "Colombia",
          "geoPoint": {
            "lat": 7.06222,
            "lon": -73.08644
          }
        },
        {
          "facility": "Research Site",
          "status": "NOT_YET_RECRUITING",
          "city": "Medellín",
          "zip": "050034",
          "country": "Colombia",
          "geoPoint": {
            "lat": 6.245,
            "lon": -75.57151
          }
        },
        {
          "facility": "Research Site",
          "status": "NOT_YET_RECRUITING",
          "city": "Valledupar",
          "zip": "200001",
          "country": "Colombia",
          "geoPoint": {
            "lat": 10.46538,
            "lon": -73.2531
          }
        },
        {
          "facility": "Research Site",
          "status": "RECRUITING",
          "city": "San José",
          "zip": "1000",
          "country": "Costa Rica",
          "geoPoint": {
            "lat": 9.93388,
            "lon": -84.08489
          }
        },
        {
          "facility": "Research Site",
          "status": "RECRUITING",
          "city": "San José",
          "zip": "10108",
          "country": "Costa Rica",
          "geoPoint": {
            "lat": 9.93388,
            "lon": -84.08489
          }
        },
        {
          "facility": "Research Site",
          "status": "RECRUITING",
          "city": "Santa Ana",
          "zip": "10903",
          "country": "Costa Rica",
          "geoPoint": {
            "lat": 9.9326,
            "lon": -84.18255
          }
        },
        {
          "facility": "Research Site",
          "status": "NOT_YET_RECRUITING",
          "city": "Angers",
          "zip": "49100",
          "country": "France",
          "geoPoint": {
            "lat": 47.47156,
            "lon": -0.55202
          }
        },
        {
          "facility": "Research Site",
          "status": "NOT_YET_RECRUITING",
          "city": "Avignon",
          "zip": "84000",
          "country": "France",
          "geoPoint": {
            "lat": 43.94834,
            "lon": 4.80892
          }
        },
        {
          "facility": "Research Site",
          "status": "NOT_YET_RECRUITING",
          "city": "Boulogne-Billancourt",
          "zip": "92100",
          "country": "France",
          "geoPoint": {
            "lat": 48.83545,
            "lon": 2.24128
          }
        },
        {
          "facility": "Research Site",
          "status": "NOT_YET_RECRUITING",
          "city": "Caen",
          "zip": "14000",
          "country": "France",
          "geoPoint": {
            "lat": 49.18585,
            "lon": -0.35912
          }
        },
        {
          "facility": "Research Site",
          "status": "NOT_YET_RECRUITING",
          "city": "Chambéry",
          "zip": "73011",
          "country": "France",
          "geoPoint": {
            "lat": 45.56628,
            "lon": 5.92079
          }
        },
        {
          "facility": "Research Site",
          "status": "NOT_YET_RECRUITING",
          "city": "Dijon",
          "zip": "21000",
          "country": "France",
          "geoPoint": {
            "lat": 47.31344,
            "lon": 5.01391
          }
        },
        {
          "facility": "Research Site",
          "status": "NOT_YET_RECRUITING",
          "city": "La Tronche",
          "zip": "38700",
          "country": "France",
          "geoPoint": {
            "lat": 45.20507,
            "lon": 5.74629
          }
        },
        {
          "facility": "Research Site",
          "status": "NOT_YET_RECRUITING",
          "city": "Limoges",
          "zip": "87042",
          "country": "France",
          "geoPoint": {
            "lat": 45.83362,
            "lon": 1.24759
          }
        },
        {
          "facility": "Research Site",
          "status": "NOT_YET_RECRUITING",
          "city": "Nantes",
          "zip": "44093",
          "country": "France",
          "geoPoint": {
            "lat": 47.21725,
            "lon": -1.55336
          }
        },
        {
          "facility": "Research Site",
          "status": "NOT_YET_RECRUITING",
          "city": "Paris",
          "zip": "75020",
          "country": "France",
          "geoPoint": {
            "lat": 48.85341,
            "lon": 2.3488
          }
        },
        {
          "facility": "Research Site",
          "status": "NOT_YET_RECRUITING",
          "city": "Pau",
          "zip": "64046",
          "country": "France",
          "geoPoint": {
            "lat": 43.31117,
            "lon": -0.35583
          }
        },
        {
          "facility": "Research Site",
          "status": "NOT_YET_RECRUITING",
          "city": "St-Malo",
          "zip": "35403",
          "country": "France",
          "geoPoint": {
            "lat": 48.64738,
            "lon": -2.00877
          }
        },
        {
          "facility": "Research Site",
          "status": "NOT_YET_RECRUITING",
          "city": "Toulouse",
          "zip": "31300",
          "country": "France",
          "geoPoint": {
            "lat": 43.60426,
            "lon": 1.44367
          }
        },
        {
          "facility": "Research Site",
          "status": "RECRUITING",
          "city": "Tbilisi",
          "zip": "0112",
          "country": "Georgia",
          "geoPoint": {
            "lat": 41.69143,
            "lon": 44.83412
          }
        },
        {
          "facility": "Research Site",
          "status": "RECRUITING",
          "city": "Tbilisi",
          "zip": "0159",
          "country": "Georgia",
          "geoPoint": {
            "lat": 41.69143,
            "lon": 44.83412
          }
        },
        {
          "facility": "Research Site",
          "status": "RECRUITING",
          "city": "Tbilisi",
          "zip": "160",
          "country": "Georgia",
          "geoPoint": {
            "lat": 41.69143,
            "lon": 44.83412
          }
        },
        {
          "facility": "Research Site",
          "status": "RECRUITING",
          "city": "Tbilisi",
          "zip": "177",
          "country": "Georgia",
          "geoPoint": {
            "lat": 41.69143,
            "lon": 44.83412
          }
        },
        {
          "facility": "Research Site",
          "status": "NOT_YET_RECRUITING",
          "city": "Amberg",
          "zip": "92224",
          "country": "Germany",
          "geoPoint": {
            "lat": 49.44287,
            "lon": 11.86267
          }
        },
        {
          "facility": "Research Site",
          "status": "NOT_YET_RECRUITING",
          "city": "Augsburg, by",
          "zip": "86156",
          "country": "Germany",
          "geoPoint": {
            "lat": 48.37154,
            "lon": 10.89851
          }
        },
        {
          "facility": "Research Site",
          "status": "NOT_YET_RECRUITING",
          "city": "Bad Saarow",
          "zip": "15526",
          "country": "Germany",
          "geoPoint": {
            "lat": 52.28333,
            "lon": 14.06667
          }
        },
        {
          "facility": "Research Site",
          "status": "NOT_YET_RECRUITING",
          "city": "Berlin",
          "zip": "12351",
          "country": "Germany",
          "geoPoint": {
            "lat": 52.52437,
            "lon": 13.41053
          }
        },
        {
          "facility": "Research Site",
          "status": "NOT_YET_RECRUITING",
          "city": "Berlin",
          "zip": "13359",
          "country": "Germany",
          "geoPoint": {
            "lat": 52.52437,
            "lon": 13.41053
          }
        },
        {
          "facility": "Research Site",
          "status": "NOT_YET_RECRUITING",
          "city": "Bonn",
          "zip": "53127",
          "country": "Germany",
          "geoPoint": {
            "lat": 50.73438,
            "lon": 7.09549
          }
        },
        {
          "facility": "Research Site",
          "status": "NOT_YET_RECRUITING",
          "city": "Braunschweig",
          "zip": "38114",
          "country": "Germany",
          "geoPoint": {
            "lat": 52.26594,
            "lon": 10.52673
          }
        },
        {
          "facility": "Research Site",
          "status": "NOT_YET_RECRUITING",
          "city": "Essen",
          "zip": "45147",
          "country": "Germany",
          "geoPoint": {
            "lat": 51.45657,
            "lon": 7.01228
          }
        },
        {
          "facility": "Research Site",
          "status": "NOT_YET_RECRUITING",
          "city": "Flensburg",
          "zip": "24939",
          "country": "Germany",
          "geoPoint": {
            "lat": 54.78805,
            "lon": 9.43722
          }
        },
        {
          "facility": "Research Site",
          "status": "NOT_YET_RECRUITING",
          "city": "Frankfurt am Main",
          "zip": "60431",
          "country": "Germany",
          "geoPoint": {
            "lat": 50.11552,
            "lon": 8.68417
          }
        },
        {
          "facility": "Research Site",
          "status": "NOT_YET_RECRUITING",
          "city": "Heilbronn",
          "zip": "74078",
          "country": "Germany",
          "geoPoint": {
            "lat": 49.13995,
            "lon": 9.22054
          }
        },
        {
          "facility": "Research Site",
          "status": "NOT_YET_RECRUITING",
          "city": "Immenhausen",
          "zip": "34376",
          "country": "Germany",
          "geoPoint": {
            "lat": 51.42763,
            "lon": 9.48017
          }
        },
        {
          "facility": "Research Site",
          "status": "NOT_YET_RECRUITING",
          "city": "Koblenz",
          "zip": "56073",
          "country": "Germany",
          "geoPoint": {
            "lat": 50.35357,
            "lon": 7.57883
          }
        },
        {
          "facility": "Research Site",
          "status": "NOT_YET_RECRUITING",
          "city": "Leipzig",
          "zip": "04103",
          "country": "Germany",
          "geoPoint": {
            "lat": 51.33962,
            "lon": 12.37129
          }
        },
        {
          "facility": "Research Site",
          "status": "NOT_YET_RECRUITING",
          "city": "Mainz",
          "zip": "55131",
          "country": "Germany",
          "geoPoint": {
            "lat": 49.98185,
            "lon": 8.28008
          }
        },
        {
          "facility": "Research Site",
          "status": "NOT_YET_RECRUITING",
          "city": "München",
          "zip": "80336",
          "country": "Germany",
          "geoPoint": {
            "lat": 51.60698,
            "lon": 13.31243
          }
        },
        {
          "facility": "Research Site",
          "status": "NOT_YET_RECRUITING",
          "city": "Oldenburg",
          "zip": "26121",
          "country": "Germany",
          "geoPoint": {
            "lat": 53.14039,
            "lon": 8.21479
          }
        },
        {
          "facility": "Research Site",
          "status": "NOT_YET_RECRUITING",
          "city": "Rotenburg (Wümme)",
          "zip": "27356",
          "country": "Germany",
          "geoPoint": {
            "lat": 53.11032,
            "lon": 9.4036
          }
        },
        {
          "facility": "Research Site",
          "status": "NOT_YET_RECRUITING",
          "city": "Schweinfurt",
          "zip": "97421",
          "country": "Germany",
          "geoPoint": {
            "lat": 50.04937,
            "lon": 10.22175
          }
        },
        {
          "facility": "Research Site",
          "status": "NOT_YET_RECRUITING",
          "city": "Trier",
          "zip": "54292",
          "country": "Germany",
          "geoPoint": {
            "lat": 49.75565,
            "lon": 6.63935
          }
        },
        {
          "facility": "Research Site",
          "status": "NOT_YET_RECRUITING",
          "city": "Velbert",
          "zip": "42551",
          "country": "Germany",
          "geoPoint": {
            "lat": 51.33537,
            "lon": 7.04348
          }
        },
        {
          "facility": "Research Site",
          "status": "NOT_YET_RECRUITING",
          "city": "Wuppertal",
          "zip": "42283",
          "country": "Germany",
          "geoPoint": {
            "lat": 51.25627,
            "lon": 7.14816
          }
        },
        {
          "facility": "Research Site",
          "status": "NOT_YET_RECRUITING",
          "city": "Würselen",
          "zip": "52146",
          "country": "Germany",
          "geoPoint": {
            "lat": 50.81809,
            "lon": 6.1347
          }
        },
        {
          "facility": "Research Site",
          "status": "NOT_YET_RECRUITING",
          "city": "Würzburg",
          "zip": "97080",
          "country": "Germany",
          "geoPoint": {
            "lat": 49.79391,
            "lon": 9.95121
          }
        },
        {
          "facility": "Research Site",
          "status": "NOT_YET_RECRUITING",
          "city": "Athens",
          "zip": "115 27",
          "country": "Greece",
          "geoPoint": {
            "lat": 37.98376,
            "lon": 23.72784
          }
        },
        {
          "facility": "Research Site",
          "status": "NOT_YET_RECRUITING",
          "city": "Athens",
          "zip": "11527",
          "country": "Greece",
          "geoPoint": {
            "lat": 37.98376,
            "lon": 23.72784
          }
        },
        {
          "facility": "Research Site",
          "status": "NOT_YET_RECRUITING",
          "city": "Athens",
          "zip": "12462",
          "country": "Greece",
          "geoPoint": {
            "lat": 37.98376,
            "lon": 23.72784
          }
        },
        {
          "facility": "Research Site",
          "status": "NOT_YET_RECRUITING",
          "city": "Piraeus",
          "zip": "185 37",
          "country": "Greece",
          "geoPoint": {
            "lat": 37.94203,
            "lon": 23.64619
          }
        },
        {
          "facility": "Research Site",
          "status": "NOT_YET_RECRUITING",
          "city": "Piraeus",
          "zip": "185 47",
          "country": "Greece",
          "geoPoint": {
            "lat": 37.94203,
            "lon": 23.64619
          }
        },
        {
          "facility": "Research Site",
          "status": "NOT_YET_RECRUITING",
          "city": "Thessaloniki",
          "zip": "55236",
          "country": "Greece",
          "geoPoint": {
            "lat": 40.64072,
            "lon": 22.93493
          }
        },
        {
          "facility": "Research Site",
          "status": "NOT_YET_RECRUITING",
          "city": "Thessaloniki",
          "zip": "56429",
          "country": "Greece",
          "geoPoint": {
            "lat": 40.64072,
            "lon": 22.93493
          }
        },
        {
          "facility": "Research Site",
          "status": "NOT_YET_RECRUITING",
          "city": "Thessaloniki",
          "zip": "57001",
          "country": "Greece",
          "geoPoint": {
            "lat": 40.64072,
            "lon": 22.93493
          }
        },
        {
          "facility": "Research Site",
          "status": "RECRUITING",
          "city": "Dublin",
          "zip": "D07 R2WY",
          "country": "Ireland",
          "geoPoint": {
            "lat": 53.33306,
            "lon": -6.24889
          }
        },
        {
          "facility": "Research Site",
          "status": "RECRUITING",
          "city": "Dublin",
          "zip": "D08 NHY1",
          "country": "Ireland",
          "geoPoint": {
            "lat": 53.33306,
            "lon": -6.24889
          }
        },
        {
          "facility": "Research Site",
          "status": "RECRUITING",
          "city": "Dublin",
          "zip": "D09 V2N0",
          "country": "Ireland",
          "geoPoint": {
            "lat": 53.33306,
            "lon": -6.24889
          }
        },
        {
          "facility": "Research Site",
          "status": "NOT_YET_RECRUITING",
          "city": "Dublin",
          "zip": "D24 NR0A",
          "country": "Ireland",
          "geoPoint": {
            "lat": 53.33306,
            "lon": -6.24889
          }
        },
        {
          "facility": "Research Site",
          "status": "RECRUITING",
          "city": "Dublin",
          "zip": "DO4YN63",
          "country": "Ireland",
          "geoPoint": {
            "lat": 53.33306,
            "lon": -6.24889
          }
        },
        {
          "facility": "Research Site",
          "status": "NOT_YET_RECRUITING",
          "city": "Galway",
          "zip": "H91 YR71",
          "country": "Ireland",
          "geoPoint": {
            "lat": 53.27245,
            "lon": -9.05095
          }
        },
        {
          "facility": "Research Site",
          "status": "RECRUITING",
          "city": "Afula",
          "zip": "1834111",
          "country": "Israel",
          "geoPoint": {
            "lat": 32.60907,
            "lon": 35.2892
          }
        },
        {
          "facility": "Research Site",
          "status": "RECRUITING",
          "city": "Beersheba",
          "zip": "8410101",
          "country": "Israel",
          "geoPoint": {
            "lat": 31.25181,
            "lon": 34.7913
          }
        },
        {
          "facility": "Research Site",
          "status": "RECRUITING",
          "city": "Hadera",
          "zip": "38100",
          "country": "Israel",
          "geoPoint": {
            "lat": 32.44192,
            "lon": 34.9039
          }
        },
        {
          "facility": "Research Site",
          "status": "RECRUITING",
          "city": "Haifa",
          "zip": "34362",
          "country": "Israel",
          "geoPoint": {
            "lat": 32.81303,
            "lon": 34.99928
          }
        },
        {
          "facility": "Research Site",
          "status": "RECRUITING",
          "city": "Jerusalem",
          "zip": "91031",
          "country": "Israel",
          "geoPoint": {
            "lat": 31.76904,
            "lon": 35.21633
          }
        },
        {
          "facility": "Research Site",
          "status": "RECRUITING",
          "city": "Jerusalem",
          "zip": "91120",
          "country": "Israel",
          "geoPoint": {
            "lat": 31.76904,
            "lon": 35.21633
          }
        },
        {
          "facility": "Research Site",
          "status": "RECRUITING",
          "city": "Ramat Gan",
          "zip": "52621",
          "country": "Israel",
          "geoPoint": {
            "lat": 32.08227,
            "lon": 34.81065
          }
        },
        {
          "facility": "Research Site",
          "status": "RECRUITING",
          "city": "Tel Aviv",
          "zip": "64239",
          "country": "Israel",
          "geoPoint": {
            "lat": 32.08088,
            "lon": 34.78057
          }
        },
        {
          "facility": "Research Site",
          "status": "RECRUITING",
          "city": "Tel Aviv",
          "zip": "69710",
          "country": "Israel",
          "geoPoint": {
            "lat": 32.08088,
            "lon": 34.78057
          }
        },
        {
          "facility": "Research Site",
          "status": "NOT_YET_RECRUITING",
          "city": "Candiolo",
          "zip": "10060",
          "country": "Italy",
          "geoPoint": {
            "lat": 44.95858,
            "lon": 7.59812
          }
        },
        {
          "facility": "Research Site",
          "status": "NOT_YET_RECRUITING",
          "city": "Lecco",
          "zip": "23900",
          "country": "Italy",
          "geoPoint": {
            "lat": 45.85589,
            "lon": 9.39704
          }
        },
        {
          "facility": "Research Site",
          "status": "NOT_YET_RECRUITING",
          "city": "Lucca",
          "zip": "55100",
          "country": "Italy",
          "geoPoint": {
            "lat": 43.84369,
            "lon": 10.50447
          }
        },
        {
          "facility": "Research Site",
          "status": "NOT_YET_RECRUITING",
          "city": "Meldola",
          "zip": "47014",
          "country": "Italy",
          "geoPoint": {
            "lat": 44.12775,
            "lon": 12.0626
          }
        },
        {
          "facility": "Research Site",
          "status": "NOT_YET_RECRUITING",
          "city": "Milan",
          "zip": "20133",
          "country": "Italy",
          "geoPoint": {
            "lat": 42.78235,
            "lon": 12.59836
          }
        },
        {
          "facility": "Research Site",
          "status": "NOT_YET_RECRUITING",
          "city": "Napoli",
          "zip": "80131",
          "country": "Italy",
          "geoPoint": {
            "lat": 40.87618,
            "lon": 14.5195
          }
        },
        {
          "facility": "Research Site",
          "status": "NOT_YET_RECRUITING",
          "city": "Peschiera del Garda",
          "zip": "37019",
          "country": "Italy",
          "geoPoint": {
            "lat": 45.43912,
            "lon": 10.68614
          }
        },
        {
          "facility": "Research Site",
          "status": "NOT_YET_RECRUITING",
          "city": "Pisa",
          "zip": "56126",
          "country": "Italy",
          "geoPoint": {
            "lat": 43.70853,
            "lon": 10.4036
          }
        },
        {
          "facility": "Research Site",
          "status": "NOT_YET_RECRUITING",
          "city": "Roma",
          "zip": "00144",
          "country": "Italy",
          "geoPoint": {
            "lat": 44.99364,
            "lon": 11.10642
          }
        },
        {
          "facility": "Research Site",
          "status": "NOT_YET_RECRUITING",
          "city": "Udine",
          "zip": "33100",
          "country": "Italy",
          "geoPoint": {
            "lat": 46.0693,
            "lon": 13.23715
          }
        },
        {
          "facility": "Research Site",
          "status": "NOT_YET_RECRUITING",
          "city": "Verona",
          "zip": "37126",
          "country": "Italy",
          "geoPoint": {
            "lat": 45.43854,
            "lon": 10.9938
          }
        },
        {
          "facility": "Research Site",
          "status": "RECRUITING",
          "city": "Akashi",
          "zip": "673-8558",
          "country": "Japan",
          "geoPoint": {
            "lat": 34.65524,
            "lon": 135.00687
          }
        },
        {
          "facility": "Research Site",
          "status": "RECRUITING",
          "city": "Bunkyō City",
          "zip": "113-8603",
          "country": "Japan",
          "geoPoint": {
            "lat": 35.5331,
            "lon": 139.4217
          }
        },
        {
          "facility": "Research Site",
          "status": "RECRUITING",
          "city": "Bunkyō City",
          "zip": "113-8677",
          "country": "Japan",
          "geoPoint": {
            "lat": 35.5331,
            "lon": 139.4217
          }
        },
        {
          "facility": "Research Site",
          "status": "RECRUITING",
          "city": "Fukuoka",
          "zip": "811-1395",
          "country": "Japan",
          "geoPoint": {
            "lat": 33.6,
            "lon": 130.41667
          }
        },
        {
          "facility": "Research Site",
          "status": "RECRUITING",
          "city": "Fukuoka",
          "zip": "812-8582",
          "country": "Japan",
          "geoPoint": {
            "lat": 33.6,
            "lon": 130.41667
          }
        },
        {
          "facility": "Research Site",
          "status": "RECRUITING",
          "city": "Hamamatsu",
          "zip": "431-3192",
          "country": "Japan",
          "geoPoint": {
            "lat": 34.7,
            "lon": 137.73333
          }
        },
        {
          "facility": "Research Site",
          "status": "RECRUITING",
          "city": "Iwakuni-shi",
          "zip": "740-8510",
          "country": "Japan"
        },
        {
          "facility": "Research Site",
          "status": "RECRUITING",
          "city": "Izumi-shi",
          "zip": "594-0073",
          "country": "Japan"
        },
        {
          "facility": "Research Site",
          "status": "RECRUITING",
          "city": "Kashihara-shi",
          "zip": "634-8522",
          "country": "Japan",
          "geoPoint": {
            "lat": 34.50896,
            "lon": 135.7929
          }
        },
        {
          "facility": "Research Site",
          "status": "RECRUITING",
          "city": "Kobe",
          "zip": "650-0046",
          "country": "Japan",
          "geoPoint": {
            "lat": 34.6913,
            "lon": 135.183
          }
        },
        {
          "facility": "Research Site",
          "status": "RECRUITING",
          "city": "Kōtoku",
          "zip": "135-8550",
          "country": "Japan",
          "geoPoint": {
            "lat": 42.50417,
            "lon": 143.14297
          }
        },
        {
          "facility": "Research Site",
          "status": "RECRUITING",
          "city": "Kurume-shi",
          "zip": "830-0011",
          "country": "Japan"
        },
        {
          "facility": "Research Site",
          "status": "RECRUITING",
          "city": "Kyoto",
          "zip": "602-8566",
          "country": "Japan",
          "geoPoint": {
            "lat": 35.02107,
            "lon": 135.75385
          }
        },
        {
          "facility": "Research Site",
          "status": "RECRUITING",
          "city": "Matsuyama",
          "zip": "791-0280",
          "country": "Japan",
          "geoPoint": {
            "lat": 33.83916,
            "lon": 132.76574
          }
        },
        {
          "facility": "Research Site",
          "status": "RECRUITING",
          "city": "Nankoku-shi",
          "zip": "783-8505",
          "country": "Japan"
        },
        {
          "facility": "Research Site",
          "status": "RECRUITING",
          "city": "Niigata",
          "zip": "951-8566",
          "country": "Japan",
          "geoPoint": {
            "lat": 37.92259,
            "lon": 139.04125
          }
        },
        {
          "facility": "Research Site",
          "status": "RECRUITING",
          "city": "Osaka",
          "zip": "534-0021",
          "country": "Japan",
          "geoPoint": {
            "lat": 34.69379,
            "lon": 135.50107
          }
        },
        {
          "facility": "Research Site",
          "status": "RECRUITING",
          "city": "Sakaishi",
          "zip": "591-8555",
          "country": "Japan",
          "geoPoint": {
            "lat": 33.41239,
            "lon": 132.71218
          }
        },
        {
          "facility": "Research Site",
          "status": "RECRUITING",
          "city": "Sayama",
          "zip": "589-8511",
          "country": "Japan",
          "geoPoint": {
            "lat": 34.51685,
            "lon": 135.56298
          }
        },
        {
          "facility": "Research Site",
          "status": "RECRUITING",
          "city": "Sendai",
          "zip": "980-0873",
          "country": "Japan",
          "geoPoint": {
            "lat": 38.26667,
            "lon": 140.86667
          }
        },
        {
          "facility": "Research Site",
          "status": "RECRUITING",
          "city": "Shinagawa-ku",
          "zip": "142-8666",
          "country": "Japan"
        },
        {
          "facility": "Research Site",
          "status": "RECRUITING",
          "city": "Takarazuka-shi",
          "zip": "665-0827",
          "country": "Japan"
        },
        {
          "facility": "Research Site",
          "status": "RECRUITING",
          "city": "Toon-Shi",
          "zip": "791-0295",
          "country": "Japan"
        },
        {
          "facility": "Research Site",
          "status": "RECRUITING",
          "city": "Toyoake-shi",
          "zip": "470-1192",
          "country": "Japan"
        },
        {
          "facility": "Research Site",
          "status": "RECRUITING",
          "city": "Toyonaka-shi",
          "zip": "560-8552",
          "country": "Japan"
        },
        {
          "facility": "Research Site",
          "status": "RECRUITING",
          "city": "George Town",
          "zip": "10350",
          "country": "Malaysia",
          "geoPoint": {
            "lat": 5.41123,
            "lon": 100.33543
          }
        },
        {
          "facility": "Research Site",
          "status": "RECRUITING",
          "city": "Kota Bharu",
          "zip": "15586",
          "country": "Malaysia",
          "geoPoint": {
            "lat": 6.12361,
            "lon": 102.24333
          }
        },
        {
          "facility": "Research Site",
          "status": "RECRUITING",
          "city": "Kuala Lumpur",
          "zip": "50586",
          "country": "Malaysia",
          "geoPoint": {
            "lat": 3.1412,
            "lon": 101.68653
          }
        },
        {
          "facility": "Research Site",
          "status": "RECRUITING",
          "city": "Kuala Selangor",
          "zip": "62250",
          "country": "Malaysia",
          "geoPoint": {
            "lat": 3.35,
            "lon": 101.25
          }
        },
        {
          "facility": "Research Site",
          "status": "NOT_YET_RECRUITING",
          "city": "Perai",
          "zip": "13700",
          "country": "Malaysia",
          "geoPoint": {
            "lat": 5.38333,
            "lon": 100.38333
          }
        },
        {
          "facility": "Research Site",
          "status": "RECRUITING",
          "city": "Alcabideche",
          "zip": "2755-009",
          "country": "Portugal",
          "geoPoint": {
            "lat": 38.73366,
            "lon": -9.40928
          }
        },
        {
          "facility": "Research Site",
          "status": "RECRUITING",
          "city": "Braga",
          "zip": "4710-243",
          "country": "Portugal",
          "geoPoint": {
            "lat": 41.5514,
            "lon": -8.42311
          }
        },
        {
          "facility": "Research Site",
          "status": "NOT_YET_RECRUITING",
          "city": "Coimbra",
          "zip": "3000-075",
          "country": "Portugal",
          "geoPoint": {
            "lat": 40.20686,
            "lon": -8.41996
          }
        },
        {
          "facility": "Research Site",
          "status": "NOT_YET_RECRUITING",
          "city": "Lisbon",
          "zip": "1400-038",
          "country": "Portugal",
          "geoPoint": {
            "lat": 38.72509,
            "lon": -9.1498
          }
        },
        {
          "facility": "Research Site",
          "status": "RECRUITING",
          "city": "Lisbon",
          "zip": "1500-650",
          "country": "Portugal",
          "geoPoint": {
            "lat": 38.72509,
            "lon": -9.1498
          }
        },
        {
          "facility": "Research Site",
          "status": "RECRUITING",
          "city": "Lisbon",
          "zip": "1769-001",
          "country": "Portugal",
          "geoPoint": {
            "lat": 38.72509,
            "lon": -9.1498
          }
        },
        {
          "facility": "Research Site",
          "status": "RECRUITING",
          "city": "Loures",
          "zip": "2674-514",
          "country": "Portugal",
          "geoPoint": {
            "lat": 38.83091,
            "lon": -9.16845
          }
        },
        {
          "facility": "Research Site",
          "status": "RECRUITING",
          "city": "Matosinhos Municipality",
          "zip": "4454-509",
          "country": "Portugal",
          "geoPoint": {
            "lat": 41.18207,
            "lon": -8.68908
          }
        },
        {
          "facility": "Research Site",
          "status": "RECRUITING",
          "city": "Porto",
          "zip": "4100-180",
          "country": "Portugal",
          "geoPoint": {
            "lat": 41.1485,
            "lon": -8.61097
          }
        },
        {
          "facility": "Research Site",
          "status": "RECRUITING",
          "city": "Porto",
          "zip": "4200-072",
          "country": "Portugal",
          "geoPoint": {
            "lat": 41.1485,
            "lon": -8.61097
          }
        },
        {
          "facility": "Research Site",
          "status": "RECRUITING",
          "city": "Porto",
          "zip": "4200-319",
          "country": "Portugal",
          "geoPoint": {
            "lat": 41.1485,
            "lon": -8.61097
          }
        },
        {
          "facility": "Research Site",
          "status": "RECRUITING",
          "city": "Bucharest",
          "zip": "010626",
          "country": "Romania",
          "geoPoint": {
            "lat": 44.43225,
            "lon": 26.10626
          }
        },
        {
          "facility": "Research Site",
          "status": "RECRUITING",
          "city": "Bucharest",
          "zip": "013812",
          "country": "Romania",
          "geoPoint": {
            "lat": 44.43225,
            "lon": 26.10626
          }
        },
        {
          "facility": "Research Site",
          "status": "RECRUITING",
          "city": "Bucharest",
          "zip": "022328",
          "country": "Romania",
          "geoPoint": {
            "lat": 44.43225,
            "lon": 26.10626
          }
        },
        {
          "facility": "Research Site",
          "status": "RECRUITING",
          "city": "Bucharest",
          "zip": "30167",
          "country": "Romania",
          "geoPoint": {
            "lat": 44.43225,
            "lon": 26.10626
          }
        },
        {
          "facility": "Research Site",
          "status": "RECRUITING",
          "city": "Craiova",
          "zip": "200385",
          "country": "Romania",
          "geoPoint": {
            "lat": 44.31667,
            "lon": 23.8
          }
        },
        {
          "facility": "Research Site",
          "status": "RECRUITING",
          "city": "Craiova",
          "zip": "200542",
          "country": "Romania",
          "geoPoint": {
            "lat": 44.31667,
            "lon": 23.8
          }
        },
        {
          "facility": "Research Site",
          "status": "NOT_YET_RECRUITING",
          "city": "Iași",
          "zip": "700106",
          "country": "Romania",
          "geoPoint": {
            "lat": 47.16667,
            "lon": 27.6
          }
        },
        {
          "facility": "Research Site",
          "status": "RECRUITING",
          "city": "Otopeni",
          "zip": "075100",
          "country": "Romania",
          "geoPoint": {
            "lat": 44.55,
            "lon": 26.06667
          }
        },
        {
          "facility": "Research Site",
          "status": "RECRUITING",
          "city": "Piteşti",
          "zip": "110283",
          "country": "Romania",
          "geoPoint": {
            "lat": 44.85,
            "lon": 24.86667
          }
        },
        {
          "facility": "Research Site",
          "status": "RECRUITING",
          "city": "Sibiu",
          "zip": "550253",
          "country": "Romania",
          "geoPoint": {
            "lat": 45.8,
            "lon": 24.15
          }
        },
        {
          "facility": "Research Site",
          "status": "RECRUITING",
          "city": "Timișoara",
          "zip": "300239",
          "country": "Romania",
          "geoPoint": {
            "lat": 45.75372,
            "lon": 21.22571
          }
        },
        {
          "facility": "Research Site",
          "status": "RECRUITING",
          "city": "Jinju",
          "zip": "52727",
          "country": "South Korea",
          "geoPoint": {
            "lat": 35.19278,
            "lon": 128.08472
          }
        },
        {
          "facility": "Research Site",
          "status": "NOT_YET_RECRUITING",
          "city": "Seoul",
          "zip": "135-710",
          "country": "South Korea",
          "geoPoint": {
            "lat": 37.566,
            "lon": 126.9784
          }
        },
        {
          "facility": "Research Site",
          "status": "RECRUITING",
          "city": "Seoul",
          "zip": "5505",
          "country": "South Korea",
          "geoPoint": {
            "lat": 37.566,
            "lon": 126.9784
          }
        },
        {
          "facility": "Research Site",
          "status": "NOT_YET_RECRUITING",
          "city": "Badajoz",
          "zip": "06080",
          "country": "Spain",
          "geoPoint": {
            "lat": 38.87789,
            "lon": -6.97061
          }
        },
        {
          "facility": "Research Site",
          "status": "NOT_YET_RECRUITING",
          "city": "Badalona",
          "zip": "8916",
          "country": "Spain",
          "geoPoint": {
            "lat": 41.45004,
            "lon": 2.24741
          }
        },
        {
          "facility": "Research Site",
          "status": "NOT_YET_RECRUITING",
          "city": "Barcelona",
          "zip": "08028",
          "country": "Spain",
          "geoPoint": {
            "lat": 41.38879,
            "lon": 2.15899
          }
        },
        {
          "facility": "Research Site",
          "status": "NOT_YET_RECRUITING",
          "city": "Castellon",
          "zip": "12002",
          "country": "Spain",
          "geoPoint": {
            "lat": 39.98567,
            "lon": -0.04935
          }
        },
        {
          "facility": "Research Site",
          "status": "NOT_YET_RECRUITING",
          "city": "Granada",
          "zip": "18016",
          "country": "Spain",
          "geoPoint": {
            "lat": 37.18817,
            "lon": -3.60667
          }
        },
        {
          "facility": "Research Site",
          "status": "NOT_YET_RECRUITING",
          "city": "Jaén",
          "zip": "23007",
          "country": "Spain",
          "geoPoint": {
            "lat": 37.76922,
            "lon": -3.79028
          }
        },
        {
          "facility": "Research Site",
          "status": "NOT_YET_RECRUITING",
          "city": "Lugo",
          "zip": "27003",
          "country": "Spain",
          "geoPoint": {
            "lat": 43.00992,
            "lon": -7.55602
          }
        },
        {
          "facility": "Research Site",
          "status": "NOT_YET_RECRUITING",
          "city": "Madrid",
          "zip": "28040",
          "country": "Spain",
          "geoPoint": {
            "lat": 40.4165,
            "lon": -3.70256
          }
        },
        {
          "facility": "Research Site",
          "status": "NOT_YET_RECRUITING",
          "city": "Madrid",
          "zip": "28041",
          "country": "Spain",
          "geoPoint": {
            "lat": 40.4165,
            "lon": -3.70256
          }
        },
        {
          "facility": "Research Site",
          "status": "NOT_YET_RECRUITING",
          "city": "Madrid",
          "zip": "28050",
          "country": "Spain",
          "geoPoint": {
            "lat": 40.4165,
            "lon": -3.70256
          }
        },
        {
          "facility": "Research Site",
          "status": "NOT_YET_RECRUITING",
          "city": "Málaga",
          "zip": "29010",
          "country": "Spain",
          "geoPoint": {
            "lat": 36.72016,
            "lon": -4.42034
          }
        },
        {
          "facility": "Research Site",
          "status": "NOT_YET_RECRUITING",
          "city": "Oviedo",
          "zip": "33006",
          "country": "Spain",
          "geoPoint": {
            "lat": 43.36029,
            "lon": -5.84476
          }
        },
        {
          "facility": "Research Site",
          "status": "NOT_YET_RECRUITING",
          "city": "Palma de Mallorca",
          "zip": "07198",
          "country": "Spain",
          "geoPoint": {
            "lat": 39.56939,
            "lon": 2.65024
          }
        },
        {
          "facility": "Research Site",
          "status": "NOT_YET_RECRUITING",
          "city": "Valencia",
          "zip": "46015",
          "country": "Spain",
          "geoPoint": {
            "lat": 39.47391,
            "lon": -0.37966
          }
        },
        {
          "facility": "Research Site",
          "status": "NOT_YET_RECRUITING",
          "city": "Vigo (Pontevedra)",
          "zip": "36312",
          "country": "Spain",
          "geoPoint": {
            "lat": 42.23282,
            "lon": -8.72264
          }
        },
        {
          "facility": "Research Site",
          "status": "NOT_YET_RECRUITING",
          "city": "Zaragoza",
          "zip": "50009",
          "country": "Spain",
          "geoPoint": {
            "lat": 41.65606,
            "lon": -0.87734
          }
        },
        {
          "facility": "Research Site",
          "status": "RECRUITING",
          "city": "Lausanne",
          "zip": "1011",
          "country": "Switzerland",
          "geoPoint": {
            "lat": 46.516,
            "lon": 6.63282
          }
        },
        {
          "facility": "Research Site",
          "status": "RECRUITING",
          "city": "Ankara",
          "zip": "06010",
          "country": "Turkey (Türkiye)",
          "geoPoint": {
            "lat": 39.91987,
            "lon": 32.85427
          }
        },
        {
          "facility": "Research Site",
          "status": "RECRUITING",
          "city": "Bakırköy",
          "zip": "34147",
          "country": "Turkey (Türkiye)",
          "geoPoint": {
            "lat": 41.24325,
            "lon": 41.80748
          }
        },
        {
          "facility": "Research Site",
          "status": "RECRUITING",
          "city": "Çankaya",
          "zip": "06680",
          "country": "Turkey (Türkiye)",
          "geoPoint": {
            "lat": 39.9179,
            "lon": 32.86268
          }
        },
        {
          "facility": "Research Site",
          "status": "RECRUITING",
          "city": "İzmit",
          "zip": "41380",
          "country": "Turkey (Türkiye)",
          "geoPoint": {
            "lat": 40.76499,
            "lon": 29.92928
          }
        },
        {
          "facility": "Research Site",
          "status": "RECRUITING",
          "city": "Küçükçekmece",
          "zip": "34295",
          "country": "Turkey (Türkiye)",
          "geoPoint": {
            "lat": 40.99104,
            "lon": 28.77123
          }
        },
        {
          "facility": "Research Site",
          "status": "NOT_YET_RECRUITING",
          "city": "Yüreğir",
          "zip": "01240",
          "country": "Turkey (Türkiye)",
          "geoPoint": {
            "lat": 36.97439,
            "lon": 35.35916
          }
        },
        {
          "facility": "Research Site",
          "status": "NOT_YET_RECRUITING",
          "city": "Blackpool",
          "zip": "FY3 8NR",
          "country": "United Kingdom",
          "geoPoint": {
            "lat": 53.81667,
            "lon": -3.05
          }
        },
        {
          "facility": "Research Site",
          "status": "NOT_YET_RECRUITING",
          "city": "Glasgow",
          "zip": "G12 0YN",
          "country": "United Kingdom",
          "geoPoint": {
            "lat": 55.86515,
            "lon": -4.25763
          }
        },
        {
          "facility": "Research Site",
          "status": "NOT_YET_RECRUITING",
          "city": "Guildford",
          "zip": "GU2 7XX",
          "country": "United Kingdom",
          "geoPoint": {
            "lat": 51.23536,
            "lon": -0.57427
          }
        },
        {
          "facility": "Research Site",
          "status": "NOT_YET_RECRUITING",
          "city": "Hull",
          "zip": "HU16 5JQ",
          "country": "United Kingdom",
          "geoPoint": {
            "lat": 53.7446,
            "lon": -0.33525
          }
        },
        {
          "facility": "Research Site",
          "status": "NOT_YET_RECRUITING",
          "city": "Stevenage",
          "zip": "SG1 4AB",
          "country": "United Kingdom",
          "geoPoint": {
            "lat": 51.90224,
            "lon": -0.20256
          }
        }
      ]
    },
    "ipdSharingStatementModule": {
      "ipdSharing": "YES",
      "description": "Qualified researchers can request access to anonymized individual participant-level data from AstraZeneca group of companies sponsored clinical trials via the request portal. All requests will be evaluated as per the AZ disclosure commitment:\n\nhttps://astrazenecagrouptrials.pharmacm.com/ST/Submission/Disclosure.\n\nYes, indicates that AZ are accepting requests for IPD, but this does not mean all requests will be shared.",
      "infoTypes": [
        "STUDY_PROTOCOL",
        "SAP"
      ],
      "timeFrame": "AstraZeneca will meet or exceed data availability as per the commitments made to the EFPIA Pharma Data Sharing Principles. For details of our timelines, please refer to our disclosure commitment at https://astrazenecagrouptrials.pharmacm.com/ST/Submission/Disclosure.",
      "accessCriteria": "When a request has been approved AstraZeneca will provide access to the anonymized individual patient-level data via secure research environment Vivli.org. A Signed Data Usage Agreement (non-negotiable contract for data accessors) must be in place before accessing requested information.",
      "url": "https://vivli.org/"
    }
  },
  "derivedSection": {
    "miscInfoModule": {
      "versionHolder": "2026-02-19"
    },
    "conditionBrowseModule": {
      "meshes": [
        {
          "id": "D002289",
          "term": "Carcinoma, Non-Small-Cell Lung"
        }
      ],
      "ancestors": [
        {
          "id": "D002283",
          "term": "Carcinoma, Bronchogenic"
        },
        {
          "id": "D001984",
          "term": "Bronchial Neoplasms"
        },
        {
          "id": "D008175",
          "term": "Lung Neoplasms"
        },
        {
          "id": "D012142",
          "term": "Respiratory Tract Neoplasms"
        },
        {
          "id": "D013899",
          "term": "Thoracic Neoplasms"
        },
        {
          "id": "D009371",
          "term": "Neoplasms by Site"
        },
        {
          "id": "D009369",
          "term": "Neoplasms"
        },
        {
          "id": "D008171",
          "term": "Lung Diseases"
        },
        {
          "id": "D012140",
          "term": "Respiratory Tract Diseases"
        }
      ]
    },
    "interventionBrowseModule": {
      "meshes": [
        {
          "id": "C582435",
          "term": "pembrolizumab"
        }
      ]
    }
  },
  "hasResults": false
}