{
  "protocolSection": {
    "identificationModule": {
      "nctId": "NCT04543617",
      "orgStudyIdInfo": {
        "id": "YO42137"
      },
      "secondaryIdInfos": [
        {
          "id": "2020-001178-31",
          "type": "EUDRACT_NUMBER"
        }
      ],
      "organization": {
        "fullName": "Hoffmann-La Roche",
        "class": "INDUSTRY"
      },
      "briefTitle": "A Study of Atezolizumab With or Without Tiragolumab in Participants With Unresectable Esophageal Squamous Cell Carcinoma Whose Cancers Have Not Progressed Following Definitive Concurrent Chemoradiotherapy",
      "officialTitle": "A Phase III, Randomized, Double-Blind, Placebo-Controlled Study of Atezolizumab With or Without Tiragolumab (Anti-TIGIT Antibody) in Patients With Unresectable Esophageal Squamous Cell Carcinoma Whose Cancers Have Not Progressed Following Definitive Concurrent Chemoradiotherapy",
      "acronym": "SKYSCRAPER-07"
    },
    "statusModule": {
      "statusVerifiedDate": "2026-01",
      "overallStatus": "ACTIVE_NOT_RECRUITING",
      "expandedAccessInfo": {
        "hasExpandedAccess": false
      },
      "startDateStruct": {
        "date": "2020-09-28",
        "type": "ACTUAL"
      },
      "primaryCompletionDateStruct": {
        "date": "2027-03-31",
        "type": "ESTIMATED"
      },
      "completionDateStruct": {
        "date": "2027-03-31",
        "type": "ESTIMATED"
      },
      "studyFirstSubmitDate": "2020-09-03",
      "studyFirstSubmitQcDate": "2020-09-03",
      "studyFirstPostDateStruct": {
        "date": "2020-09-10",
        "type": "ACTUAL"
      },
      "lastUpdateSubmitDate": "2026-01-16",
      "lastUpdatePostDateStruct": {
        "date": "2026-01-20",
        "type": "ACTUAL"
      }
    },
    "sponsorCollaboratorsModule": {
      "responsibleParty": {
        "type": "SPONSOR"
      },
      "leadSponsor": {
        "name": "Hoffmann-La Roche",
        "class": "INDUSTRY"
      }
    },
    "oversightModule": {
      "oversightHasDmc": true,
      "isFdaRegulatedDrug": true,
      "isFdaRegulatedDevice": false
    },
    "descriptionModule": {
      "briefSummary": "The purpose of this study is to evaluate the efficacy and safety of tiragolumab plus atezolizumab compared with placebo in participants with unresectable esophageal squamous cell carcinoma (or those who are unable or unwilling to undergo surgery) and whose cancers have not progressed following definitive concurrent chemoradiotherapy (dCRT). Participants will be randomized in a 1:1:1 ratio to receive either tiragolumab plus atezolizumab (Arm A), tiragolumab matching placebo plus atezolizumab (Arm B), or double placebo (Arm C)."
    },
    "conditionsModule": {
      "conditions": [
        "Esophageal Squamous Cell Carcinoma"
      ]
    },
    "designModule": {
      "studyType": "INTERVENTIONAL",
      "phases": [
        "PHASE3"
      ],
      "designInfo": {
        "allocation": "RANDOMIZED",
        "interventionModel": "PARALLEL",
        "primaryPurpose": "TREATMENT",
        "maskingInfo": {
          "masking": "QUADRUPLE",
          "whoMasked": [
            "PARTICIPANT",
            "CARE_PROVIDER",
            "INVESTIGATOR",
            "OUTCOMES_ASSESSOR"
          ]
        }
      },
      "enrollmentInfo": {
        "count": 760,
        "type": "ACTUAL"
      }
    },
    "armsInterventionsModule": {
      "armGroups": [
        {
          "label": "Arm A: Tiragolumab + Atezolizumab",
          "type": "EXPERIMENTAL",
          "description": "Participants will receive atezolizumab followed by tiragolumab.",
          "interventionNames": [
            "Drug: Tiragolumab",
            "Drug: Atezolizumab"
          ]
        },
        {
          "label": "Arm B: Tiragolumab Placebo + Atezolizumab",
          "type": "EXPERIMENTAL",
          "description": "Participants will receive atezolizumab followed by tiragolumab matching placebo.",
          "interventionNames": [
            "Drug: Atezolizumab",
            "Drug: Tiragolumab Matching Placebo"
          ]
        },
        {
          "label": "Arm C: Tiragolumab Placebo + Atezolizumab Placebo",
          "type": "PLACEBO_COMPARATOR",
          "description": "Participants will receive matching placebos to tiragolumab and atezolizumab.",
          "interventionNames": [
            "Drug: Tiragolumab Matching Placebo",
            "Drug: Atezolizumab Matching Placebo"
          ]
        }
      ],
      "interventions": [
        {
          "type": "DRUG",
          "name": "Tiragolumab",
          "description": "Tiragolumab at a fixed dose of 600 milligrams (mg) administered by intravenous (IV) infusion every 3 weeks (Q3W) on Day 1 of each 21-day cycle.",
          "armGroupLabels": [
            "Arm A: Tiragolumab + Atezolizumab"
          ],
          "otherNames": [
            "MTIG7192A, RO7092284"
          ]
        },
        {
          "type": "DRUG",
          "name": "Atezolizumab",
          "description": "Atezolizumab at a fixed dose of 1200 mg administered by IV infusion Q3W on Day 1 of each 21-day cycle.",
          "armGroupLabels": [
            "Arm A: Tiragolumab + Atezolizumab",
            "Arm B: Tiragolumab Placebo + Atezolizumab"
          ],
          "otherNames": [
            "Tecentriq, RO5541267"
          ]
        },
        {
          "type": "DRUG",
          "name": "Tiragolumab Matching Placebo",
          "description": "Tiragolumab matching placebo administered by IV infusion Q3W on Day 1 of each 21-day cycle.",
          "armGroupLabels": [
            "Arm B: Tiragolumab Placebo + Atezolizumab",
            "Arm C: Tiragolumab Placebo + Atezolizumab Placebo"
          ]
        },
        {
          "type": "DRUG",
          "name": "Atezolizumab Matching Placebo",
          "description": "Atezolizumab matching placebo administered by IV infusion Q3W on Day 1 of each 21-day cycle.",
          "armGroupLabels": [
            "Arm C: Tiragolumab Placebo + Atezolizumab Placebo"
          ]
        }
      ]
    },
    "outcomesModule": {
      "primaryOutcomes": [
        {
          "measure": "Arm A vs Arm C: Investigator-Assessed Progression-Free Survival (PFS)",
          "timeFrame": "From randomization to the first occurrence of disease progression or death from any cause, whichever occurs first (up to approximately 6 years)"
        },
        {
          "measure": "Arm A vs Arm C: Overall Survival (OS)",
          "timeFrame": "From randomization to death from any cause (up to approximately 6 years)"
        },
        {
          "measure": "Arm B vs Arm C: OS",
          "timeFrame": "From randomization to death from any cause (up to approximately 6 years)"
        }
      ],
      "secondaryOutcomes": [
        {
          "measure": "Arm B vs Arm C: Investigator-Assessed PFS",
          "timeFrame": "From randomization to the first occurrence of disease progression or death from any cause, whichever occurs first (up to approximately 6 years)"
        },
        {
          "measure": "Arm A vs Arm B: Investigator-Assessed PFS",
          "timeFrame": "From randomization to the first occurrence of disease progression or death from any cause, whichever occurs first (up to approximately 6 years)"
        },
        {
          "measure": "Arm A vs Arm B: OS",
          "timeFrame": "From randomization to death from any cause (up to approximately 6 years)"
        },
        {
          "measure": "Independent Review Facility (IRF)-Assessed PFS",
          "timeFrame": "From randomization to the first occurrence of disease progression or death from any cause, whichever occurs first (up to approximately 6 years)"
        },
        {
          "measure": "Investigator-Assessed Confirmed Objective Response Rate (ORR)",
          "timeFrame": "From randomization up to approximately 6 years"
        },
        {
          "measure": "IRF-Assessed Confirmed ORR",
          "timeFrame": "From randomization up to approximately 6 years"
        },
        {
          "measure": "Investigator-Assessed Duration of Objective Response (DOR)",
          "timeFrame": "From the first occurrence of a documented confirmed objective response to the first occurrence of disease progression or death from any cause, whichever occurs first (up to approximately 6 years)"
        },
        {
          "measure": "IRF-Assessed DOR",
          "timeFrame": "From the first occurrence of a documented confirmed objective response to the first occurrence of disease progression or death from any cause, whichever occurs first (up to approximately 6 years)"
        },
        {
          "measure": "Percentage of Participants With Clinically Meaningful Changes in Physical Functioning, Role Functioning, Quality of Life (QoL) as Measured by EORTC QLQ-C30",
          "description": "Clinically meaningful changes in physical functioning, role functioning, global health status (GHS)/QoL as measured by the European Organisation for Research and Treatment of Cancer Quality of Life-Core 30 Questionnaire (EORTC QLQ-C30). EORTC QLQ-C30 is a self-reported measure, consisting of 30 questions that assess 5 aspects of participants functioning (physical, emotional, role, cognitive and social), 3 symptom scales (fatigue, nausea and vomiting, and pain), GHS and QoL, and 6 single items (dyspnea, insomnia, appetite loss, constipation, diarrhea and financial difficulties) within the previous week. Functioning and symptoms items are scored on a 4-point scale: 1=Not at all, 2=A little, 3=Quite a bit, 4=Very much. GHS and QoL items are scored on a 7-point scale: 1=Very poor, 2, 3, 4, 5, 6, 7=Excellent. Scores will be linearly transformed to a range of 0 to 100, with higher scores (i.e. closer to 100) reflecting better functioning, better GHS/QoL, and worse symptoms.",
          "timeFrame": "Up to approximately 6 years"
        },
        {
          "measure": "Percentage of Participants With Clinically Meaningful Changes in Dysphagia as Measured by EORTC QLQ-OES18",
          "description": "Clinically meaningful changes in dysphagia as measured by the EORTC Quality of Life-Esophageal Cancer, Module 18 Questionnaire (EORTC QLQ-OES18). EORTC QLQ-OES18 is a modular supplement to the EORTC QLQ-C30 questionnaire for use in participants with esophageal cancer. EORTC QLQ-OES18 consists of 4 multiple-item scale (dysphagia, eating, reflux, and pain) and 6 single items (trouble swallowing saliva, choked when swallowing, dry mouth, trouble with taste, trouble with coughing, and trouble talking) with a recall period of the previous week. Each symptom item is scored on a 4-point scale: 1=Not at all, 2=A little, 3=Quite a bit, 4=Very much. Scores will be linearly transformed to a range of 0 to 100, with higher transformed scores (i.e. closer to 100) reflecting worse symptoms.",
          "timeFrame": "Up to approximately 6 years"
        },
        {
          "measure": "Percentage of Participants With Adverse Events (AEs)",
          "timeFrame": "Up to approximately 6 years"
        },
        {
          "measure": "Serum Concentration of Tiragolumab",
          "timeFrame": "Predose and postdose on Day 1 of Cycle 1 (each cycle=21 days) and predose on Day 1 of Cycles 2, 3, 4, 8, 12 and 16 and at treatment discontinuation (TD) visit (up to approximately 6 years)"
        },
        {
          "measure": "Serum Concentration of Atezolizumab",
          "timeFrame": "Predose and postdose on Day 1 of Cycle 1 (each cycle=21 days) and predose on Day 1 of Cycles 2, 3, 4, 8, 12 and 16 and at TD visit (up to approximately 6 years)"
        },
        {
          "measure": "Percentage of Participants With Anti-drug Antibodies (ADAs) to Tiragolumab",
          "timeFrame": "Predose on Day 1 of Cycles (each cycle=21 days) 1, 2, 3, 4, 8, 12 and 16 and at TD visit (up to approximately 6 years)"
        },
        {
          "measure": "Percentage of Participants With ADAs to Atezolizumab",
          "timeFrame": "Predose on Day 1 of Cycles (each cycle=21 days) 1, 2, 3, 4, 8, 12 and 16 and at TD visit (up to approximately 6 years)"
        }
      ]
    },
    "eligibilityModule": {
      "eligibilityCriteria": "Key Inclusion Criteria:\n\n* Eastern Cooperative Oncology Group (ECOG) Performance Status of 0 or 1\n* Histologically or cytologically confirmed diagnosis of squamous cell carcinoma of the esophagus\n* Unresectable disease ineligible for curative surgery based on the documented opinion of the qualified medical, surgical or radiation oncologist prior to dCRT and is not expected to undergo tumor resection during the course of the study\n* dCRT treatment according to regional oncology guidelines for esophageal cancer\n* Representative archival formalin-fixed, paraffin-embedded (FFPE) tumor specimens collected prior to initiation of dCRT\n* Adequate hematologic and end-organ function prior to randomization\n* Women of childbearing potential must remain abstinent or use contraceptive methods with a failure rate of \\< 1% per year during the treatment period, for 5 months after the final dose of atezolizumab/placebo, and for 90 days after the final dose of tiragolumab/placebo, whichever is later\n* Men must agree to remain abstinent (refrain from heterosexual intercourse) or use a condom, and agree to refrain from donating sperm during the treatment period and for 90 days after the final dose of tiragolumab/placebo.\n\nKey Exclusion Criteria:\n\n* Prior treatment with CD137 agonists or immune checkpoint blockade therapies, including anti-CTLA-4, anti-PD-1, anti-PD-L1 and anti-TIGIT therapeutic antibodies\n* Any unresolved toxicity of National Cancer Institute's (NCI) Common Terminology Criteria for Adverse Events (CTCAE) Grade ≥ 2 from the prior chemoradiation therapy with the exception of irreversible and manageable hearing loss\n* Prior allogeneic stem cell or solid organ transplantation\n* Active or history of autoimmune disease or immune deficiency\n* History of idiopathic pulmonary fibrosis, organizing pneumonia (e.g., bronchiolitis obliterans), drug-induced pneumonitis, or idiopathic pneumonitis, or evidence of active pneumonitis\n* Malignancies other than esophageal cancer within 2 years prior to screening, with the exception of malignancies with a negligible risk of metastasis or death\n* Treatment with any other investigational agent, including epidermal growth factor receptor (EGFR) inhibitors, with therapeutic intent for esophageal cancer prior to randomization.",
      "healthyVolunteers": false,
      "sex": "ALL",
      "minimumAge": "18 Years",
      "stdAges": [
        "ADULT",
        "OLDER_ADULT"
      ]
    },
    "contactsLocationsModule": {
      "overallOfficials": [
        {
          "name": "Clinical Trial",
          "affiliation": "Hoffmann-La Roche",
          "role": "STUDY_DIRECTOR"
        }
      ],
      "locations": [
        {
          "facility": "Florida Cancer Specialists - Fort Myers (Broadway)",
          "city": "Fort Myers",
          "state": "Florida",
          "zip": "33901",
          "country": "United States",
          "geoPoint": {
            "lat": 26.62168,
            "lon": -81.84059
          }
        },
        {
          "facility": "Cancer Center of Kansas",
          "city": "Wichita",
          "state": "Kansas",
          "zip": "67214-3728",
          "country": "United States",
          "geoPoint": {
            "lat": 37.69224,
            "lon": -97.33754
          }
        },
        {
          "facility": "Great Lakes Cancer Center",
          "city": "Williamsville",
          "state": "New York",
          "zip": "14221",
          "country": "United States",
          "geoPoint": {
            "lat": 42.96395,
            "lon": -78.73781
          }
        },
        {
          "facility": "Instituto de Investigaciones Metabolicas (Idim)",
          "city": "Buenos Aires",
          "zip": "C1012AAR",
          "country": "Argentina",
          "geoPoint": {
            "lat": -34.61315,
            "lon": -58.37723
          }
        },
        {
          "facility": "Fundacion Favaloro",
          "city": "Buenos Aires",
          "zip": "C1093AAS",
          "country": "Argentina",
          "geoPoint": {
            "lat": -34.61315,
            "lon": -58.37723
          }
        },
        {
          "facility": "Centro Oncologico Riojano Integral (CORI)",
          "city": "La Rioja",
          "zip": "F5300COE",
          "country": "Argentina",
          "geoPoint": {
            "lat": -29.41328,
            "lon": -66.85637
          }
        },
        {
          "facility": "Princess Alexandra Hospital",
          "city": "Woolloongabba",
          "state": "Queensland",
          "zip": "4102",
          "country": "Australia",
          "geoPoint": {
            "lat": -27.48855,
            "lon": 153.03655
          }
        },
        {
          "facility": "Austin Health",
          "city": "Heidelberg",
          "state": "Victoria",
          "zip": "3084",
          "country": "Australia",
          "geoPoint": {
            "lat": -37.75,
            "lon": 145.06667
          }
        },
        {
          "facility": "St John of God Hospital",
          "city": "Subiaco",
          "state": "Western Australia",
          "zip": "6008",
          "country": "Australia",
          "geoPoint": {
            "lat": -31.9485,
            "lon": 115.8268
          }
        },
        {
          "facility": "Tiroler Landeskrankenanstalten Ges.M.B.H.",
          "city": "Innsbruck",
          "zip": "6020",
          "country": "Austria",
          "geoPoint": {
            "lat": 47.26266,
            "lon": 11.39454
          }
        },
        {
          "facility": "Klinikum Klagenfurt am Wörthersee",
          "city": "Klagenfurt",
          "zip": "9020",
          "country": "Austria",
          "geoPoint": {
            "lat": 46.62472,
            "lon": 14.30528
          }
        },
        {
          "facility": "Ordensklinikum Linz Barmherzige Schwestern",
          "city": "Linz",
          "zip": "4010",
          "country": "Austria",
          "geoPoint": {
            "lat": 48.30639,
            "lon": 14.28611
          }
        },
        {
          "facility": "AKH - Medizinische Universität Wien",
          "city": "Vienna",
          "zip": "1090",
          "country": "Austria",
          "geoPoint": {
            "lat": 48.20849,
            "lon": 16.37208
          }
        },
        {
          "facility": "UZ Antwerpen",
          "city": "Edegem",
          "zip": "2650",
          "country": "Belgium",
          "geoPoint": {
            "lat": 51.15662,
            "lon": 4.44504
          }
        },
        {
          "facility": "UZ Leuven Gasthuisberg",
          "city": "Leuven",
          "zip": "3000",
          "country": "Belgium",
          "geoPoint": {
            "lat": 50.87959,
            "lon": 4.70093
          }
        },
        {
          "facility": "CHU de Liège (Sart Tilman)",
          "city": "Liège",
          "zip": "4000",
          "country": "Belgium",
          "geoPoint": {
            "lat": 50.63373,
            "lon": 5.56749
          }
        },
        {
          "facility": "Anyang Tumor Hosptial",
          "city": "Anyang",
          "zip": "455000",
          "country": "China",
          "geoPoint": {
            "lat": 36.096,
            "lon": 114.38278
          }
        },
        {
          "facility": "Cancer Hospital Chinese Academy of Medical Sciences.",
          "city": "Beijing",
          "zip": "100021",
          "country": "China",
          "geoPoint": {
            "lat": 39.9075,
            "lon": 116.39723
          }
        },
        {
          "facility": "Affiliated Hospital of Bengbu Medical College",
          "city": "Bengbu",
          "zip": "233004",
          "country": "China",
          "geoPoint": {
            "lat": 32.94083,
            "lon": 117.36083
          }
        },
        {
          "facility": "Hunan Cancer Hospital",
          "city": "Changsha",
          "zip": "410013",
          "country": "China",
          "geoPoint": {
            "lat": 28.19874,
            "lon": 112.97087
          }
        },
        {
          "facility": "Heping Hospital Affiliated to Changzhi Medical College",
          "city": "Changzhi",
          "zip": "046000",
          "country": "China",
          "geoPoint": {
            "lat": 36.18389,
            "lon": 113.10528
          }
        },
        {
          "facility": "Changzhou Cancer hospital",
          "city": "Changzhou",
          "zip": "213000",
          "country": "China",
          "geoPoint": {
            "lat": 31.77359,
            "lon": 119.95401
          }
        },
        {
          "facility": "Sichuan Provincial Cancer Hospital",
          "city": "Chengdu",
          "zip": "610041",
          "country": "China",
          "geoPoint": {
            "lat": 30.66667,
            "lon": 104.06667
          }
        },
        {
          "facility": "West China Hospital, Sichuan University",
          "city": "Chengdu",
          "zip": "610041",
          "country": "China",
          "geoPoint": {
            "lat": 30.66667,
            "lon": 104.06667
          }
        },
        {
          "facility": "Chongqing Cancer Hospital",
          "city": "Chongqing",
          "zip": "400030",
          "country": "China",
          "geoPoint": {
            "lat": 29.56026,
            "lon": 106.55771
          }
        },
        {
          "facility": "Chongqing Sanxia Central Hospital",
          "city": "Chongqing",
          "zip": "404000",
          "country": "China",
          "geoPoint": {
            "lat": 29.56026,
            "lon": 106.55771
          }
        },
        {
          "facility": "Fujian Cancer Hospital",
          "city": "Fuzhou",
          "zip": "350014",
          "country": "China",
          "geoPoint": {
            "lat": 26.06139,
            "lon": 119.30611
          }
        },
        {
          "facility": "Sun Yet-sen University Cancer Center",
          "city": "Guangzhou",
          "zip": "510060",
          "country": "China",
          "geoPoint": {
            "lat": 23.11667,
            "lon": 113.25
          }
        },
        {
          "facility": "Nanfang Hospital, Southern Medical University",
          "city": "Guangzhou",
          "zip": "510515",
          "country": "China",
          "geoPoint": {
            "lat": 23.11667,
            "lon": 113.25
          }
        },
        {
          "facility": "Zhejiang Cancer Hospital",
          "city": "Hangzhou",
          "zip": "310022",
          "country": "China",
          "geoPoint": {
            "lat": 30.29365,
            "lon": 120.16142
          }
        },
        {
          "facility": "Jieyang People's Hospital",
          "city": "Jieyang",
          "country": "China",
          "geoPoint": {
            "lat": 23.5418,
            "lon": 116.36581
          }
        },
        {
          "facility": "Shandong Cancer Hospital",
          "city": "Jinan",
          "zip": "250117",
          "country": "China",
          "geoPoint": {
            "lat": 36.66833,
            "lon": 116.99722
          }
        },
        {
          "facility": "Affiliated Hospital of Jining Medical University",
          "city": "Jining",
          "zip": "272029",
          "country": "China",
          "geoPoint": {
            "lat": 35.405,
            "lon": 116.58139
          }
        },
        {
          "facility": "The First People's Hospital of Lian Yun Gang",
          "city": "Lianyungang",
          "zip": "222002",
          "country": "China",
          "geoPoint": {
            "lat": 34.59845,
            "lon": 119.21556
          }
        },
        {
          "facility": "Lishui Central Hospital",
          "city": "Lishui",
          "country": "China",
          "geoPoint": {
            "lat": 28.46042,
            "lon": 119.91029
          }
        },
        {
          "facility": "The First Affiliated Hospital to Henan University of Science and Technology",
          "city": "Luoyang",
          "zip": "471003",
          "country": "China",
          "geoPoint": {
            "lat": 34.67345,
            "lon": 112.43684
          }
        },
        {
          "facility": "Affiliated Drum Tower Hospital of Nanjing University Medical School",
          "city": "Nanjing",
          "zip": "210008",
          "country": "China",
          "geoPoint": {
            "lat": 32.06167,
            "lon": 118.77778
          }
        },
        {
          "facility": "Shanghai Chest Hospital",
          "city": "Shanghai",
          "zip": "200000",
          "country": "China",
          "geoPoint": {
            "lat": 31.22222,
            "lon": 121.45806
          }
        },
        {
          "facility": "Fudan University Shanghai Cancer Center",
          "city": "Shanghai",
          "zip": "200032",
          "country": "China",
          "geoPoint": {
            "lat": 31.22222,
            "lon": 121.45806
          }
        },
        {
          "facility": "Cancer Hospital of Shantou University Medical College",
          "city": "Shantou",
          "zip": "515041",
          "country": "China",
          "geoPoint": {
            "lat": 23.35489,
            "lon": 116.67876
          }
        },
        {
          "facility": "Liaoning cancer Hospital & Institute",
          "city": "Shenyang",
          "zip": "110042",
          "country": "China",
          "geoPoint": {
            "lat": 41.79222,
            "lon": 123.43278
          }
        },
        {
          "facility": "Cancer Hospital Chinese Academy of Medical Sciences Shenzhen Center",
          "city": "Shenzhen",
          "country": "China",
          "geoPoint": {
            "lat": 22.54554,
            "lon": 114.0683
          }
        },
        {
          "facility": "Hebei Medical University Fourth Hospital",
          "city": "Shijiazhuang",
          "zip": "050035",
          "country": "China",
          "geoPoint": {
            "lat": 38.04139,
            "lon": 114.47861
          }
        },
        {
          "facility": "Tianjin Cancer Hospital",
          "city": "Tianjin",
          "zip": "300060",
          "country": "China",
          "geoPoint": {
            "lat": 39.14222,
            "lon": 117.17667
          }
        },
        {
          "facility": "Wuhan Union Hospital Tongji Medical College, Huazhong University of Science and Technology",
          "city": "Wuhan",
          "zip": "430022",
          "country": "China",
          "geoPoint": {
            "lat": 30.58333,
            "lon": 114.26667
          }
        },
        {
          "facility": "Hubei Cancer Hospital",
          "city": "Wuhan",
          "zip": "430079",
          "country": "China",
          "geoPoint": {
            "lat": 30.58333,
            "lon": 114.26667
          }
        },
        {
          "facility": "The First Affiliated Hospital of Xiamen University",
          "city": "Xiamen",
          "zip": "361003",
          "country": "China",
          "geoPoint": {
            "lat": 24.47979,
            "lon": 118.08187
          }
        },
        {
          "facility": "Zhongshan Hospital Xiamen University",
          "city": "Xiamen",
          "zip": "361004",
          "country": "China",
          "geoPoint": {
            "lat": 24.47979,
            "lon": 118.08187
          }
        },
        {
          "facility": "The First Affiliated Hospital of Xinxiang Medical University",
          "city": "Xinxiang",
          "country": "China",
          "geoPoint": {
            "lat": 35.19033,
            "lon": 113.80151
          }
        },
        {
          "facility": "The Affiliated Hospital of Xuzhou Medical College",
          "city": "Xuzhou",
          "zip": "221000",
          "country": "China",
          "geoPoint": {
            "lat": 34.20442,
            "lon": 117.28386
          }
        },
        {
          "facility": "Subei People's Hospital of Jiangsu province",
          "city": "Yangzhou",
          "zip": "225001",
          "country": "China",
          "geoPoint": {
            "lat": 32.39722,
            "lon": 119.43583
          }
        },
        {
          "facility": "CHRU De Brest - Hopital Morvan - Institut De Cancerologie Et D'Hematologie",
          "city": "Brest",
          "zip": "29609",
          "country": "France",
          "geoPoint": {
            "lat": 48.39029,
            "lon": -4.48628
          }
        },
        {
          "facility": "CHU Dijon Bourgogne Hôpital François Mitterand",
          "city": "Dijon",
          "zip": "21000",
          "country": "France",
          "geoPoint": {
            "lat": 47.31344,
            "lon": 5.01391
          }
        },
        {
          "facility": "Hopital Claude Huriez",
          "city": "Lille",
          "zip": "59037",
          "country": "France",
          "geoPoint": {
            "lat": 50.63391,
            "lon": 3.05512
          }
        },
        {
          "facility": "Centre Leon Berard",
          "city": "Lyon",
          "zip": "69373",
          "country": "France",
          "geoPoint": {
            "lat": 45.74906,
            "lon": 4.84789
          }
        },
        {
          "facility": "Hopital Timone Adultes",
          "city": "Marseille",
          "zip": "13385",
          "country": "France",
          "geoPoint": {
            "lat": 43.29695,
            "lon": 5.38107
          }
        },
        {
          "facility": "Centre Antoine Lacassagne",
          "city": "Nice",
          "zip": "06189",
          "country": "France",
          "geoPoint": {
            "lat": 43.70313,
            "lon": 7.26608
          }
        },
        {
          "facility": "European Hospital Georges Pompidou (HEGP)",
          "city": "Paris",
          "zip": "75908",
          "country": "France",
          "geoPoint": {
            "lat": 48.85341,
            "lon": 2.3488
          }
        },
        {
          "facility": "Hopital Du Haut-Leveque",
          "city": "Pessac",
          "zip": "33604",
          "country": "France",
          "geoPoint": {
            "lat": 44.80565,
            "lon": -0.6324
          }
        },
        {
          "facility": "Chu La Miletrie",
          "city": "Poitiers",
          "zip": "86021",
          "country": "France",
          "geoPoint": {
            "lat": 46.58261,
            "lon": 0.34348
          }
        },
        {
          "facility": "Hopital Rangueil",
          "city": "Toulouse",
          "zip": "31059",
          "country": "France",
          "geoPoint": {
            "lat": 43.60426,
            "lon": 1.44367
          }
        },
        {
          "facility": "Universitätsklinikum Essen Klinik f.Strahlentherapie",
          "city": "Essen",
          "zip": "45122",
          "country": "Germany",
          "geoPoint": {
            "lat": 51.45657,
            "lon": 7.01228
          }
        },
        {
          "facility": "Kliniken Essen-Mitte, Evang. Huyssens-Stiftung, Klinik für Internistische Onkologie / Haematologie",
          "city": "Essen",
          "zip": "45136",
          "country": "Germany",
          "geoPoint": {
            "lat": 51.45657,
            "lon": 7.01228
          }
        },
        {
          "facility": "Klinik für Gastroenterologie und Gastrointestinale Onkologie der UMG",
          "city": "Göttingen",
          "zip": "37075",
          "country": "Germany",
          "geoPoint": {
            "lat": 51.53443,
            "lon": 9.93228
          }
        },
        {
          "facility": "Universitaetsklinikum Leipzig",
          "city": "Leipzig",
          "zip": "04103",
          "country": "Germany",
          "geoPoint": {
            "lat": 51.33962,
            "lon": 12.37129
          }
        },
        {
          "facility": "Med. Fak. d. Otto-von-Guericke-Universität",
          "city": "Magdeburg",
          "zip": "39120",
          "country": "Germany",
          "geoPoint": {
            "lat": 52.13129,
            "lon": 11.63189
          }
        },
        {
          "facility": "Klinikum der Philipps-Universität Marburg",
          "city": "Marburg",
          "zip": "35032",
          "country": "Germany",
          "geoPoint": {
            "lat": 50.80904,
            "lon": 8.77069
          }
        },
        {
          "facility": "Universitätsklinikum Klinik u.Poliklinik f.Strahlentherapie",
          "city": "Regensburg",
          "zip": "93053",
          "country": "Germany",
          "geoPoint": {
            "lat": 49.01513,
            "lon": 12.10161
          }
        },
        {
          "facility": "Evgenidio Hospital \"Agia Trias\"",
          "city": "Athens",
          "zip": "115 28",
          "country": "Greece",
          "geoPoint": {
            "lat": 37.98376,
            "lon": 23.72784
          }
        },
        {
          "facility": "Univ General Hosp Heraklion",
          "city": "Heraklion",
          "zip": "711 10",
          "country": "Greece",
          "geoPoint": {
            "lat": 35.32787,
            "lon": 25.14341
          }
        },
        {
          "facility": "Euromedical General Clinic of Thessaloniki",
          "city": "Thessaloniki",
          "zip": "546 45",
          "country": "Greece",
          "geoPoint": {
            "lat": 40.64072,
            "lon": 22.93493
          }
        },
        {
          "facility": "Pécsi Tudományegyetem",
          "city": "Pécs",
          "zip": "7623",
          "country": "Hungary",
          "geoPoint": {
            "lat": 46.07617,
            "lon": 18.22814
          }
        },
        {
          "facility": "Szegedi Tudományegyetem",
          "city": "Szeged",
          "zip": "6720",
          "country": "Hungary",
          "geoPoint": {
            "lat": 46.253,
            "lon": 20.14824
          }
        },
        {
          "facility": "Hadassah Ein Karem Hospital",
          "city": "Jerusalem",
          "zip": "9112000",
          "country": "Israel",
          "geoPoint": {
            "lat": 31.76904,
            "lon": 35.21633
          }
        },
        {
          "facility": "Rambam Health Corporation",
          "city": "Rambam",
          "zip": "3525408",
          "country": "Israel"
        },
        {
          "facility": "Tel Aviv Sourasky Medical Ctr",
          "city": "Tel Aviv",
          "zip": "6423906",
          "country": "Israel",
          "geoPoint": {
            "lat": 32.08088,
            "lon": 34.78057
          }
        },
        {
          "facility": "Università degli Studi della Campania Luigi Vanvitelli",
          "city": "Napoli",
          "state": "Campania",
          "zip": "80131",
          "country": "Italy",
          "geoPoint": {
            "lat": 40.87618,
            "lon": 14.5195
          }
        },
        {
          "facility": "Ospedale Degli Infermi - Faenza",
          "city": "Faenza",
          "state": "Emilia-Romagna",
          "zip": "48018",
          "country": "Italy",
          "geoPoint": {
            "lat": 44.29007,
            "lon": 11.87948
          }
        },
        {
          "facility": "Asu Fc S. M. Della Misericordia",
          "city": "Udine",
          "state": "Friuli Venezia Giulia",
          "zip": "33100",
          "country": "Italy",
          "geoPoint": {
            "lat": 46.0693,
            "lon": 13.23715
          }
        },
        {
          "facility": "Istituto Oncologico Veneto IRCCS",
          "city": "Padua",
          "state": "Veneto",
          "zip": "35128",
          "country": "Italy",
          "geoPoint": {
            "lat": 45.40797,
            "lon": 11.88586
          }
        },
        {
          "facility": "Aichi Cancer Center Hospital",
          "city": "Aichi",
          "zip": "464-8681",
          "country": "Japan",
          "geoPoint": {
            "lat": 32.51879,
            "lon": 130.62158
          }
        },
        {
          "facility": "National Cancer Center Hospital East",
          "city": "Chiba",
          "zip": "277-8577",
          "country": "Japan",
          "geoPoint": {
            "lat": 35.6,
            "lon": 140.11667
          }
        },
        {
          "facility": "Hiroshima University Hospital",
          "city": "Hiroshima",
          "zip": "734-8551",
          "country": "Japan",
          "geoPoint": {
            "lat": 34.4,
            "lon": 132.45
          }
        },
        {
          "facility": "Kobe University Hospital",
          "city": "Hyōgo",
          "zip": "650-0017",
          "country": "Japan",
          "geoPoint": {
            "lat": 43.36667,
            "lon": 144.43333
          }
        },
        {
          "facility": "Yokohama City University Medical Center",
          "city": "Kanagawa",
          "zip": "232-0024",
          "country": "Japan",
          "geoPoint": {
            "lat": 37.58333,
            "lon": 139.91667
          }
        },
        {
          "facility": "Kanagawa Cancer Center",
          "city": "Kanagawa",
          "zip": "241-8515",
          "country": "Japan",
          "geoPoint": {
            "lat": 37.58333,
            "lon": 139.91667
          }
        },
        {
          "facility": "Tohoku University Hospital",
          "city": "Miyagi",
          "zip": "980-8574",
          "country": "Japan",
          "geoPoint": {
            "lat": 26.62566,
            "lon": 128.18236
          }
        },
        {
          "facility": "Niigata Cancer Center Hospital",
          "city": "Niigata",
          "zip": "951-8566",
          "country": "Japan",
          "geoPoint": {
            "lat": 37.92259,
            "lon": 139.04125
          }
        },
        {
          "facility": "Osaka International Cancer Institute",
          "city": "Osaka",
          "zip": "541-8567",
          "country": "Japan",
          "geoPoint": {
            "lat": 34.69379,
            "lon": 135.50107
          }
        },
        {
          "facility": "The University of Osaka Hospital",
          "city": "Osaka",
          "zip": "565-0871",
          "country": "Japan",
          "geoPoint": {
            "lat": 34.69379,
            "lon": 135.50107
          }
        },
        {
          "facility": "Saitama Medical University International Medical Center",
          "city": "Saitama",
          "zip": "350-1298",
          "country": "Japan",
          "geoPoint": {
            "lat": 35.90807,
            "lon": 139.65657
          }
        },
        {
          "facility": "Saitama Cancer Center",
          "city": "Saitama",
          "zip": "362-0806",
          "country": "Japan",
          "geoPoint": {
            "lat": 35.90807,
            "lon": 139.65657
          }
        },
        {
          "facility": "Shizuoka Cancer Center",
          "city": "Shizuoka",
          "zip": "411-8777",
          "country": "Japan",
          "geoPoint": {
            "lat": 34.98333,
            "lon": 138.38333
          }
        },
        {
          "facility": "The Cancer Institute Hospital of JFCR",
          "city": "Tokyo",
          "zip": "135-8550",
          "country": "Japan",
          "geoPoint": {
            "lat": 35.6895,
            "lon": 139.69171
          }
        },
        {
          "facility": "Keio University Hospital",
          "city": "Tokyo",
          "zip": "160-8582",
          "country": "Japan",
          "geoPoint": {
            "lat": 35.6895,
            "lon": 139.69171
          }
        },
        {
          "facility": "International Cancer Institute (ICI)",
          "city": "Eldoret",
          "zip": "30100",
          "country": "Kenya",
          "geoPoint": {
            "lat": 0.52036,
            "lon": 35.26993
          }
        },
        {
          "facility": "The Aga Khan University-Kenya.",
          "city": "Nairobi",
          "zip": "00100",
          "country": "Kenya",
          "geoPoint": {
            "lat": -1.28333,
            "lon": 36.81667
          }
        },
        {
          "facility": "Centre Hospitalier Universitaire Hassan II",
          "city": "Fes",
          "zip": "30000",
          "country": "Morocco",
          "geoPoint": {
            "lat": 34.03313,
            "lon": -5.00028
          }
        },
        {
          "facility": "Centre Hospitalier Universitaire Mohamed VI",
          "city": "Marrakesh",
          "zip": "40000",
          "country": "Morocco",
          "geoPoint": {
            "lat": 31.63416,
            "lon": -7.99994
          }
        },
        {
          "facility": "Institut National D'oncologie Sidi Med Benabdellah",
          "city": "Rabat",
          "zip": "10100",
          "country": "Morocco",
          "geoPoint": {
            "lat": 34.01325,
            "lon": -6.83255
          }
        },
        {
          "facility": "Tauranga Hospital, Clinical Trials Unit",
          "city": "Tauranga",
          "zip": "3112",
          "country": "New Zealand",
          "geoPoint": {
            "lat": -37.68611,
            "lon": 176.16667
          }
        },
        {
          "facility": "Centrum Onkologii",
          "city": "Bydgoszcz",
          "zip": "85-796",
          "country": "Poland",
          "geoPoint": {
            "lat": 53.1235,
            "lon": 18.00762
          }
        },
        {
          "facility": "Centrum Onkologii Ziemi Lubelskiej Im. ?W. Jana Z Dukli",
          "city": "Lublin",
          "zip": "20-090",
          "country": "Poland",
          "geoPoint": {
            "lat": 51.25058,
            "lon": 22.57009
          }
        },
        {
          "facility": "Szpital Kliniczny MSWiA z Warmi?sko-Mazurskim Centrum Onkologii",
          "city": "Olsztyn",
          "zip": "10-228",
          "country": "Poland",
          "geoPoint": {
            "lat": 53.78376,
            "lon": 20.49272
          }
        },
        {
          "facility": "Wielkopolskie Centrum Onkologii im. Marii Sk?odowskiej-Curie",
          "city": "Późna",
          "zip": "61-866",
          "country": "Poland",
          "geoPoint": {
            "lat": 51.84442,
            "lon": 14.61868
          }
        },
        {
          "facility": "NIO im Marii Sklodowskiej-Curie",
          "city": "Warsaw",
          "zip": "02-034",
          "country": "Poland",
          "geoPoint": {
            "lat": 52.22977,
            "lon": 21.01178
          }
        },
        {
          "facility": "Dolno?l?skie Centrum Onkologii",
          "city": "Wroc?aw",
          "zip": "53-413",
          "country": "Poland"
        },
        {
          "facility": "HUC",
          "city": "Coimbra",
          "zip": "3000-075",
          "country": "Portugal",
          "geoPoint": {
            "lat": 40.20686,
            "lon": -8.41996
          }
        },
        {
          "facility": "Centro Hospitalar do Porto ? Hospital de Santo António",
          "city": "Porto",
          "zip": "4099-001",
          "country": "Portugal",
          "geoPoint": {
            "lat": 41.1485,
            "lon": -8.61097
          }
        },
        {
          "facility": "IPO do Porto",
          "city": "Porto",
          "zip": "4200-072",
          "country": "Portugal",
          "geoPoint": {
            "lat": 41.1485,
            "lon": -8.61097
          }
        },
        {
          "facility": "Krasnoyarsk Regional Oncology Dispensary n.a. Krizhanovsky",
          "city": "Krasnoyarsk",
          "state": "Krasnodarskiy Kray",
          "zip": "660133",
          "country": "Russia"
        },
        {
          "facility": "Russian Oncology Research Center n.a. N.N. Blokhin Dpt of Clinical Pharmacology and Chemotherapy",
          "city": "Moscow",
          "state": "Moscow Oblast",
          "zip": "115478",
          "country": "Russia"
        },
        {
          "facility": "Republican Clinical Oncology Dispensary of Ministry of Healthcare of Tatarstan Republic",
          "city": "Kazan'",
          "state": "Tatarstan Republic",
          "zip": "420029",
          "country": "Russia",
          "geoPoint": {
            "lat": 55.78874,
            "lon": 49.12214
          }
        },
        {
          "facility": "City Oncological Hospital",
          "city": "Izhevsk",
          "state": "Udmurtiya Republic",
          "zip": "426067",
          "country": "Russia",
          "geoPoint": {
            "lat": 56.85225,
            "lon": 53.19862
          }
        },
        {
          "facility": "Limited Liability Company \"RC Medical\"",
          "city": "Novosibirsk",
          "zip": "630005",
          "country": "Russia",
          "geoPoint": {
            "lat": 55.02259,
            "lon": 82.93175
          }
        },
        {
          "facility": "Regional Oncology Dispensary",
          "city": "Tomsk",
          "zip": "634063",
          "country": "Russia",
          "geoPoint": {
            "lat": 56.50049,
            "lon": 84.98216
          }
        },
        {
          "facility": "Limpopo Cancer Research Institute",
          "city": "Polokwane",
          "country": "South Africa",
          "geoPoint": {
            "lat": -23.90449,
            "lon": 29.46885
          }
        },
        {
          "facility": "Cancercare",
          "city": "Port Elizabeth",
          "zip": "6045",
          "country": "South Africa",
          "geoPoint": {
            "lat": -33.96109,
            "lon": 25.61494
          }
        },
        {
          "facility": "Eugene Marais Hospital",
          "city": "Pretoria",
          "country": "South Africa",
          "geoPoint": {
            "lat": -25.74486,
            "lon": 28.18783
          }
        },
        {
          "facility": "Kyungpook National University Chilgok Hospital",
          "city": "Daegu",
          "zip": "41404",
          "country": "South Korea",
          "geoPoint": {
            "lat": 35.87028,
            "lon": 128.59111
          }
        },
        {
          "facility": "Ajou University Medical Center",
          "city": "Gyeonggi-do",
          "zip": "16499",
          "country": "South Korea",
          "geoPoint": {
            "lat": 37.58944,
            "lon": 126.76917
          }
        },
        {
          "facility": "Chonnam National University Hwasun Hospital",
          "city": "Jeollanam-do",
          "zip": "58128",
          "country": "South Korea"
        },
        {
          "facility": "Severance Hospital, Yonsei University Health System",
          "city": "Seoul",
          "zip": "03722",
          "country": "South Korea",
          "geoPoint": {
            "lat": 37.566,
            "lon": 126.9784
          }
        },
        {
          "facility": "Asan Medical Center",
          "city": "Seoul",
          "zip": "05505",
          "country": "South Korea",
          "geoPoint": {
            "lat": 37.566,
            "lon": 126.9784
          }
        },
        {
          "facility": "Samsung Medical Center",
          "city": "Seoul",
          "zip": "06351",
          "country": "South Korea",
          "geoPoint": {
            "lat": 37.566,
            "lon": 126.9784
          }
        },
        {
          "facility": "Korea University Guro Hospital",
          "city": "Seoul",
          "zip": "08308",
          "country": "South Korea",
          "geoPoint": {
            "lat": 37.566,
            "lon": 126.9784
          }
        },
        {
          "facility": "Complejo Hospitalario Universitario A Coruña (CHUAC)",
          "city": "A Coruña",
          "state": "LA Coruna",
          "zip": "15006",
          "country": "Spain",
          "geoPoint": {
            "lat": 43.37135,
            "lon": -8.396
          }
        },
        {
          "facility": "Hospital Univ. Central de Asturias",
          "city": "Oviedo",
          "state": "Principality of Asturias",
          "zip": "33006",
          "country": "Spain",
          "geoPoint": {
            "lat": 43.36029,
            "lon": -5.84476
          }
        },
        {
          "facility": "Hospital Universitari Vall d'Hebron",
          "city": "Barcelona",
          "zip": "08035",
          "country": "Spain",
          "geoPoint": {
            "lat": 41.38879,
            "lon": 2.15899
          }
        },
        {
          "facility": "Hospital Clinic I Provincial",
          "city": "Barcelona",
          "zip": "08036",
          "country": "Spain",
          "geoPoint": {
            "lat": 41.38879,
            "lon": 2.15899
          }
        },
        {
          "facility": "Hospital Universitario Reina Sofia",
          "city": "Córdoba",
          "zip": "14004",
          "country": "Spain",
          "geoPoint": {
            "lat": 37.89155,
            "lon": -4.77275
          }
        },
        {
          "facility": "Fundacion Jimenez Diaz",
          "city": "Madrid",
          "zip": "28040",
          "country": "Spain",
          "geoPoint": {
            "lat": 40.4165,
            "lon": -3.70256
          }
        },
        {
          "facility": "Hospital Regional Universitario Carlos Haya",
          "city": "Málaga",
          "zip": "29010",
          "country": "Spain",
          "geoPoint": {
            "lat": 36.72016,
            "lon": -4.42034
          }
        },
        {
          "facility": "Hospital Clinico Universitario de Valencia",
          "city": "Valencia",
          "zip": "46010",
          "country": "Spain",
          "geoPoint": {
            "lat": 39.47391,
            "lon": -0.37966
          }
        },
        {
          "facility": "Hospital La Fe",
          "city": "Valencia",
          "country": "Spain",
          "geoPoint": {
            "lat": 39.47391,
            "lon": -0.37966
          }
        },
        {
          "facility": "Inselspital Bern, Insel-Gruppe AG",
          "city": "Bern",
          "zip": "3010",
          "country": "Switzerland",
          "geoPoint": {
            "lat": 46.94809,
            "lon": 7.44744
          }
        },
        {
          "facility": "UniversitätsSpital Zürich",
          "city": "Zurich",
          "zip": "8091",
          "country": "Switzerland",
          "geoPoint": {
            "lat": 47.36667,
            "lon": 8.55
          }
        },
        {
          "facility": "Chang Gung Medical Foundation - Kaohsiung;Oncology",
          "city": "Kaohisung",
          "country": "Taiwan"
        },
        {
          "facility": "China Medical University Hospital",
          "city": "Taichung",
          "zip": "404",
          "country": "Taiwan",
          "geoPoint": {
            "lat": 24.1469,
            "lon": 120.6839
          }
        },
        {
          "facility": "National Cheng Kung University Hospital",
          "city": "Tainan",
          "zip": "00704",
          "country": "Taiwan",
          "geoPoint": {
            "lat": 22.99083,
            "lon": 120.21333
          }
        },
        {
          "facility": "Chi-Mei Medical Centre",
          "city": "Tainan",
          "zip": "710",
          "country": "Taiwan",
          "geoPoint": {
            "lat": 22.99083,
            "lon": 120.21333
          }
        },
        {
          "facility": "National Taiwan University Hospital",
          "city": "Taipei",
          "zip": "100",
          "country": "Taiwan",
          "geoPoint": {
            "lat": 25.05306,
            "lon": 121.52639
          }
        },
        {
          "facility": "Taipei Veterans General Hospital",
          "city": "Taipei",
          "zip": "112201",
          "country": "Taiwan",
          "geoPoint": {
            "lat": 25.05306,
            "lon": 121.52639
          }
        },
        {
          "facility": "Vajira Hospital",
          "city": "Bangkok",
          "zip": "10300",
          "country": "Thailand",
          "geoPoint": {
            "lat": 13.75398,
            "lon": 100.50144
          }
        },
        {
          "facility": "Chulalongkorn Hospital",
          "city": "Bangkok",
          "zip": "10330",
          "country": "Thailand",
          "geoPoint": {
            "lat": 13.75398,
            "lon": 100.50144
          }
        },
        {
          "facility": "Ramathibodi Hospital",
          "city": "Bangkok",
          "zip": "10400",
          "country": "Thailand",
          "geoPoint": {
            "lat": 13.75398,
            "lon": 100.50144
          }
        },
        {
          "facility": "Siriraj Hospital",
          "city": "Bangkok",
          "zip": "10700",
          "country": "Thailand",
          "geoPoint": {
            "lat": 13.75398,
            "lon": 100.50144
          }
        },
        {
          "facility": "Songklanagarind Hospital",
          "city": "Songkhla",
          "zip": "90110",
          "country": "Thailand",
          "geoPoint": {
            "lat": 7.19882,
            "lon": 100.5951
          }
        },
        {
          "facility": "Baskent University Adana Dr. Turgut Noyan Practice and Research Hospital",
          "city": "Adana",
          "zip": "01250",
          "country": "Turkey (Türkiye)",
          "geoPoint": {
            "lat": 36.98615,
            "lon": 35.32531
          }
        },
        {
          "facility": "Ankara University Faculty of Medicine Cebeci Hospital",
          "city": "Ankara",
          "zip": "06700",
          "country": "Turkey (Türkiye)",
          "geoPoint": {
            "lat": 39.91987,
            "lon": 32.85427
          }
        },
        {
          "facility": "Ankara City Hospital",
          "city": "Ankara",
          "zip": "06800",
          "country": "Turkey (Türkiye)",
          "geoPoint": {
            "lat": 39.91987,
            "lon": 32.85427
          }
        },
        {
          "facility": "Ataturk University Medical Faculty Yakutiye Research Hospital Medical Oncology Department",
          "city": "Erzurum",
          "zip": "25240",
          "country": "Turkey (Türkiye)",
          "geoPoint": {
            "lat": 39.90861,
            "lon": 41.27694
          }
        },
        {
          "facility": "Inonu University Faculty of Medicine Turgut Ozal Medical Center",
          "city": "Malatya",
          "zip": "44280",
          "country": "Turkey (Türkiye)",
          "geoPoint": {
            "lat": 38.35018,
            "lon": 38.31667
          }
        },
        {
          "facility": "Van Yuzuncu Yil University Hospital",
          "city": "Van",
          "country": "Turkey (Türkiye)",
          "geoPoint": {
            "lat": 38.49457,
            "lon": 43.38323
          }
        },
        {
          "facility": "Municipal Noncommercial Institution Regional Center of Oncology",
          "city": "Kharkiv",
          "state": "Kharkiv Governorate",
          "zip": "61070",
          "country": "Ukraine",
          "geoPoint": {
            "lat": 49.98177,
            "lon": 36.25475
          }
        },
        {
          "facility": "Zhytomyr Regional Oncology Center",
          "city": "Zhytomyr",
          "state": "KIEV Governorate",
          "country": "Ukraine",
          "geoPoint": {
            "lat": 50.26235,
            "lon": 28.67913
          }
        },
        {
          "facility": "Vinnytsya Regional Clinical Oncology Dispensary",
          "city": "Vinnytsia",
          "state": "Podolia Governorate",
          "zip": "21029",
          "country": "Ukraine",
          "geoPoint": {
            "lat": 49.2322,
            "lon": 28.46871
          }
        },
        {
          "facility": "RCI Sumy Regional Clinical Oncological Dispensary",
          "city": "Sumy",
          "zip": "40005",
          "country": "Ukraine",
          "geoPoint": {
            "lat": 50.91741,
            "lon": 34.79906
          }
        },
        {
          "facility": "Royal Bournemouth Hospital",
          "city": "Bournemouth",
          "zip": "BH7 7DW",
          "country": "United Kingdom",
          "geoPoint": {
            "lat": 50.72048,
            "lon": -1.8795
          }
        },
        {
          "facility": "Addenbrookes Hospital",
          "city": "Cambridge",
          "zip": "CB2 0QQ",
          "country": "United Kingdom",
          "geoPoint": {
            "lat": 52.2,
            "lon": 0.11667
          }
        },
        {
          "facility": "Ninewells Hospital",
          "city": "London",
          "zip": "DD1 9SY",
          "country": "United Kingdom",
          "geoPoint": {
            "lat": 51.50853,
            "lon": -0.12574
          }
        },
        {
          "facility": "Royal Marsden Hospital - Fulham",
          "city": "London",
          "zip": "SW3 6JJ",
          "country": "United Kingdom",
          "geoPoint": {
            "lat": 51.50853,
            "lon": -0.12574
          }
        },
        {
          "facility": "Clatterbridge Cancer Centre",
          "city": "Metropolitan Borough of Wirral",
          "zip": "CH63 4JY",
          "country": "United Kingdom",
          "geoPoint": {
            "lat": 53.37616,
            "lon": -3.10501
          }
        },
        {
          "facility": "Royal Marsden Hospital (Sutton)",
          "city": "Sutton",
          "zip": "SM2 5PT",
          "country": "United Kingdom",
          "geoPoint": {
            "lat": 51.35,
            "lon": -0.2
          }
        },
        {
          "facility": "New Cross Hospital",
          "city": "Wolverhampton",
          "zip": "WV10 0QP",
          "country": "United Kingdom",
          "geoPoint": {
            "lat": 52.58547,
            "lon": -2.12296
          }
        }
      ]
    },
    "ipdSharingStatementModule": {
      "ipdSharing": "YES",
      "description": "For eligible studies, qualified researchers may request access to individual patient level clinical data. See Roche's commitment to transparency of clinical study information here: https://go.roche.com/data\\_sharing"
    }
  },
  "derivedSection": {
    "miscInfoModule": {
      "versionHolder": "2026-02-17",
      "removedCountries": [
        "Brazil",
        "Czechia"
      ]
    },
    "conditionBrowseModule": {
      "meshes": [
        {
          "id": "D000077277",
          "term": "Esophageal Squamous Cell Carcinoma"
        }
      ],
      "ancestors": [
        {
          "id": "D002294",
          "term": "Carcinoma, Squamous Cell"
        },
        {
          "id": "D002277",
          "term": "Carcinoma"
        },
        {
          "id": "D009375",
          "term": "Neoplasms, Glandular and Epithelial"
        },
        {
          "id": "D009370",
          "term": "Neoplasms by Histologic Type"
        },
        {
          "id": "D009369",
          "term": "Neoplasms"
        },
        {
          "id": "D018307",
          "term": "Neoplasms, Squamous Cell"
        },
        {
          "id": "D004938",
          "term": "Esophageal Neoplasms"
        },
        {
          "id": "D005770",
          "term": "Gastrointestinal Neoplasms"
        },
        {
          "id": "D004067",
          "term": "Digestive System Neoplasms"
        },
        {
          "id": "D009371",
          "term": "Neoplasms by Site"
        },
        {
          "id": "D006258",
          "term": "Head and Neck Neoplasms"
        },
        {
          "id": "D004066",
          "term": "Digestive System Diseases"
        },
        {
          "id": "D004935",
          "term": "Esophageal Diseases"
        },
        {
          "id": "D005767",
          "term": "Gastrointestinal Diseases"
        }
      ]
    },
    "interventionBrowseModule": {
      "meshes": [
        {
          "id": "C000730814",
          "term": "Tiragolumab"
        },
        {
          "id": "C000594389",
          "term": "atezolizumab"
        }
      ]
    }
  },
  "hasResults": false
}