{
  "protocolSection": {
    "identificationModule": {
      "nctId": "NCT04492683",
      "orgStudyIdInfo": {
        "id": "V1605-201"
      },
      "organization": {
        "fullName": "DBV Technologies",
        "class": "INDUSTRY"
      },
      "briefTitle": "Diagnostic Accuracy and Safety of DBV1605 for the Diagnosis of Non-IgE Mediated Cow's Milk Allergy in Children",
      "officialTitle": "A Phase 2 Study to Evaluate the Sensitivity, Specificity and Safety of DBV1605, a Ready-to-Use Atopy Patch Test for the Diagnosis of Non-Immunoglobulin E Mediated Cow's Milk Allergy in Children",
      "acronym": "APTITUDE"
    },
    "statusModule": {
      "statusVerifiedDate": "2021-12",
      "overallStatus": "UNKNOWN",
      "lastKnownStatus": "RECRUITING",
      "expandedAccessInfo": {
        "hasExpandedAccess": false
      },
      "startDateStruct": {
        "date": "2020-08-28",
        "type": "ACTUAL"
      },
      "primaryCompletionDateStruct": {
        "date": "2024-03",
        "type": "ESTIMATED"
      },
      "completionDateStruct": {
        "date": "2024-03",
        "type": "ESTIMATED"
      },
      "studyFirstSubmitDate": "2020-07-23",
      "studyFirstSubmitQcDate": "2020-07-28",
      "studyFirstPostDateStruct": {
        "date": "2020-07-30",
        "type": "ACTUAL"
      },
      "lastUpdateSubmitDate": "2022-08-09",
      "lastUpdatePostDateStruct": {
        "date": "2022-08-11",
        "type": "ACTUAL"
      }
    },
    "sponsorCollaboratorsModule": {
      "responsibleParty": {
        "type": "SPONSOR"
      },
      "leadSponsor": {
        "name": "DBV Technologies",
        "class": "INDUSTRY"
      }
    },
    "oversightModule": {
      "oversightHasDmc": false,
      "isFdaRegulatedDrug": true,
      "isFdaRegulatedDevice": false
    },
    "descriptionModule": {
      "briefSummary": "Study to assess the diagnostic accuracy (sensitivity, specificity, positive and negative predictive value) of DBV1605 for the diagnosis of non-Immunoglobulin E (IgE) mediated cow's milk allergy (CMA) in children with symptoms suggestive of non-IgE mediated CMA."
    },
    "conditionsModule": {
      "conditions": [
        "Cow's Milk Allergy"
      ],
      "keywords": [
        "Non-IgE mediated CMA"
      ]
    },
    "designModule": {
      "studyType": "INTERVENTIONAL",
      "phases": [
        "PHASE2"
      ],
      "designInfo": {
        "allocation": "NON_RANDOMIZED",
        "interventionModel": "PARALLEL",
        "primaryPurpose": "DIAGNOSTIC",
        "maskingInfo": {
          "masking": "TRIPLE",
          "whoMasked": [
            "PARTICIPANT",
            "INVESTIGATOR",
            "OUTCOMES_ASSESSOR"
          ]
        }
      },
      "enrollmentInfo": {
        "count": 230,
        "type": "ESTIMATED"
      }
    },
    "armsInterventionsModule": {
      "armGroups": [
        {
          "label": "Disease group",
          "type": "EXPERIMENTAL",
          "description": "One active patch and one control patch applied to subjects with clinical symptoms suggestive of non-IgE mediated CMA",
          "interventionNames": [
            "Combination Product: DBV1605"
          ]
        },
        {
          "label": "Control group",
          "type": "EXPERIMENTAL",
          "description": "One active patch and one control patch applied to subjects without any history of allergic disease",
          "interventionNames": [
            "Combination Product: DBV1605"
          ]
        }
      ],
      "interventions": [
        {
          "type": "COMBINATION_PRODUCT",
          "name": "DBV1605",
          "description": "Ready-to-use atopy patch test for diagnostic use containing 2 distinct patches:\n\n* One active patch containing a dry deposit of 180 μg of cow's milk proteins\n* One control patch with the same design as the active patch but devoid of any formulation.",
          "armGroupLabels": [
            "Control group",
            "Disease group"
          ]
        }
      ]
    },
    "outcomesModule": {
      "primaryOutcomes": [
        {
          "measure": "Diagnostic performance of DBV1605",
          "description": "Sensitivity and specificity of DBV1605 based on skin reactivity readings after 48 hours will be compared to the results of the DBPCFC in subjects of the disease group.",
          "timeFrame": "48 hours"
        },
        {
          "measure": "Diagnostic performance of DBV1605",
          "description": "Sensitivity and specificity of DBV1605 based on skin reactivity readings after 72 hours will be compared to the results of the DBPCFC in subjects of the disease group.",
          "timeFrame": "72 hours"
        }
      ],
      "secondaryOutcomes": [
        {
          "measure": "Adverse Events (AEs), Treatment Emergent Adverse Events (TEAEs), Serious Adverse Events (SAEs)",
          "timeFrame": "Up to day 49"
        }
      ]
    },
    "eligibilityModule": {
      "eligibilityCriteria": "DISEASE GROUP\n\nInclusion Criteria:\n\n* Male or female subjects aged \\> 28 days to ≤ 24 months at Screening Visit\n* Subjects with clinical symptoms suggestive of non-IgE mediated Cow's Milk Allergy\n* Subjects with any type of diet containing daily products with cow's milk protein (e.g. cow's milk consumption, cow's milk partial elimination, partially hydrolyzed milk) prior to Screening Visit or who have started a cow's milk elimination diet not more than 4 weeks prior to Screening Visit,\n* Subjects/parents/guardians who agree to follow a strict cow's milk-free diet and other mammalian milks (such as sheep and goat's milk) as per study requirements.\n\nExclusion Criteria:\n\n* Subjects with an established diagnosis of non-IgE mediated CMA\n* Breast-fed subject at Screening Visit\n* Subjects with a convincing history of IgE-mediated CMA\n* Subjects on a cow's milk protein-free diet including an AA-based formula or an extensively hydrolyzed formula initiated more than 4 weeks prior to Screening Visit.\n* Generalized dermatologic disease (e.g. severe atopic dermatitis, ) extending widely on the skin.\n* Any contraindication to a cow's milk challenge\n\nCONTROL GROUP\n\nInclusion Criteria:\n\n* Male or female subjects aged \\> 28 days to ≤ 24 months at Screening visit\n* Subjects having no medical history of any type of allergy\n* Subjects who tolerate at least 200 mL of cow's milk or equivalent dairy foods daily within 4 weeks prior to Screening visit\n\nExclusion Criteria:\n\n* Subjects with history of persistent gastro-intestinal symptoms\n* Exclusively breast-fed subjects at Screening visit",
      "healthyVolunteers": true,
      "sex": "ALL",
      "minimumAge": "29 Days",
      "maximumAge": "24 Months",
      "stdAges": [
        "CHILD"
      ]
    },
    "contactsLocationsModule": {
      "locations": [
        {
          "facility": "Titan Clinical Research",
          "status": "RECRUITING",
          "city": "Phoenix",
          "state": "Arizona",
          "zip": "85004",
          "country": "United States",
          "contacts": [
            {
              "name": "Yadwinder Dhillon, MD",
              "role": "CONTACT",
              "phone": "623-262-0930",
              "email": "y.dhillon@viableresearch.org"
            },
            {
              "name": "Yadwinder Dhillon, MD",
              "role": "PRINCIPAL_INVESTIGATOR"
            }
          ],
          "geoPoint": {
            "lat": 33.44838,
            "lon": -112.07404
          }
        },
        {
          "facility": "University of Arizona Health Science",
          "status": "RECRUITING",
          "city": "Tucson",
          "state": "Arizona",
          "zip": "85719",
          "country": "United States",
          "contacts": [
            {
              "name": "Heather Cassell, MD",
              "role": "CONTACT",
              "phone": "520-626-8517",
              "email": "heathercassell@peds.arizona.edu"
            },
            {
              "name": "Heather Cassell, MD",
              "role": "PRINCIPAL_INVESTIGATOR"
            }
          ],
          "geoPoint": {
            "lat": 32.22174,
            "lon": -110.92648
          }
        },
        {
          "facility": "University of California, Rady Children's Hospital",
          "status": "NOT_YET_RECRUITING",
          "city": "San Diego",
          "state": "California",
          "zip": "92123",
          "country": "United States",
          "contacts": [
            {
              "name": "Stephanie Leonard, MD",
              "role": "CONTACT",
              "phone": "858-966-5961",
              "email": "saleonard@ucsd.edu"
            },
            {
              "name": "Stephanie Leonard, MD",
              "role": "PRINCIPAL_INVESTIGATOR"
            }
          ],
          "geoPoint": {
            "lat": 32.71571,
            "lon": -117.16472
          }
        },
        {
          "facility": "Children's Hospital Colorado",
          "status": "WITHDRAWN",
          "city": "Aurora",
          "state": "Colorado",
          "zip": "80045",
          "country": "United States",
          "geoPoint": {
            "lat": 39.72943,
            "lon": -104.83192
          }
        },
        {
          "facility": "Children's National Medical Center",
          "status": "RECRUITING",
          "city": "Washington D.C.",
          "state": "District of Columbia",
          "zip": "20010-2916",
          "country": "United States",
          "contacts": [
            {
              "name": "Hemant Sharma, MD",
              "role": "CONTACT",
              "phone": "202-476-4416",
              "email": "Hsharma@childrensnational.org"
            },
            {
              "name": "Hemant Sharma, MD",
              "role": "PRINCIPAL_INVESTIGATOR"
            }
          ],
          "geoPoint": {
            "lat": 38.89511,
            "lon": -77.03637
          }
        },
        {
          "facility": "Eastern Research Inc.",
          "status": "WITHDRAWN",
          "city": "Hialeah",
          "state": "Florida",
          "zip": "33013",
          "country": "United States",
          "geoPoint": {
            "lat": 25.8576,
            "lon": -80.27811
          }
        },
        {
          "facility": "Biomedical Research, LLC",
          "status": "RECRUITING",
          "city": "Miami",
          "state": "Florida",
          "zip": "33184",
          "country": "United States",
          "contacts": [
            {
              "name": "Lilia Roque Guerrero, MD",
              "role": "CONTACT",
              "phone": "305-671-3686",
              "email": "LroqueMD@Bio-MedicalResearch.com"
            },
            {
              "name": "Lilia Roque Guerrero",
              "role": "PRINCIPAL_INVESTIGATOR"
            }
          ],
          "geoPoint": {
            "lat": 25.77427,
            "lon": -80.19366
          }
        },
        {
          "facility": "Sunshine Research Center",
          "status": "NOT_YET_RECRUITING",
          "city": "Opa-locka",
          "state": "Florida",
          "zip": "33054",
          "country": "United States",
          "contacts": [
            {
              "name": "Pierre Blemur, MD",
              "role": "CONTACT",
              "phone": "305-688-0791",
              "email": "maitemenendez@yahoo.com"
            },
            {
              "name": "Pierre Blemur, MD",
              "role": "PRINCIPAL_INVESTIGATOR"
            }
          ],
          "geoPoint": {
            "lat": 25.90232,
            "lon": -80.25033
          }
        },
        {
          "facility": "Allergy Center at Brookstone - Research Department",
          "status": "WITHDRAWN",
          "city": "Columbus",
          "state": "Georgia",
          "zip": "31904",
          "country": "United States",
          "geoPoint": {
            "lat": 32.46098,
            "lon": -84.98771
          }
        },
        {
          "facility": "MedPharmics, LLC - Lafayette",
          "status": "RECRUITING",
          "city": "Lafayette",
          "state": "Louisiana",
          "zip": "70508",
          "country": "United States",
          "contacts": [
            {
              "name": "Jibran Atwi, MD",
              "role": "CONTACT",
              "phone": "337-451-0663",
              "email": "jibranatwi@medpharmics.com"
            },
            {
              "name": "Jibran Atwi, MD",
              "role": "PRINCIPAL_INVESTIGATOR"
            }
          ],
          "geoPoint": {
            "lat": 30.22409,
            "lon": -92.01984
          }
        },
        {
          "facility": "Massachusets General Hospital",
          "status": "RECRUITING",
          "city": "Boston",
          "state": "Massachusetts",
          "zip": "02114",
          "country": "United States",
          "contacts": [
            {
              "name": "Wayne Shreffler, MD",
              "role": "CONTACT",
              "phone": "617-726-6147",
              "email": "wshreffler@mgh.harvard.edu"
            },
            {
              "name": "Wayne Shreffler, MD",
              "role": "PRINCIPAL_INVESTIGATOR"
            }
          ],
          "geoPoint": {
            "lat": 42.35843,
            "lon": -71.05977
          }
        },
        {
          "facility": "New York University Langone Medical Center",
          "status": "RECRUITING",
          "city": "New York",
          "state": "New York",
          "zip": "10016",
          "country": "United States",
          "contacts": [
            {
              "name": "Anna Nowak-Wegzryn, MD",
              "role": "CONTACT",
              "phone": "212-263-1255",
              "email": "Anna.Nowak-wegrzyn@nyulangone.org"
            },
            {
              "name": "Anna Nowak-Wegzryn, MD",
              "role": "PRINCIPAL_INVESTIGATOR"
            }
          ],
          "geoPoint": {
            "lat": 40.71427,
            "lon": -74.00597
          }
        },
        {
          "facility": "Icahn School of Medicine at Mount Sinai",
          "status": "NOT_YET_RECRUITING",
          "city": "New York",
          "state": "New York",
          "zip": "10029",
          "country": "United States",
          "contacts": [
            {
              "name": "Mary Grace Baker, MD",
              "role": "CONTACT",
              "phone": "212-241-5548",
              "email": "marygrace.baker@mssm.edu"
            },
            {
              "name": "Mary Grace Baker, MD",
              "role": "PRINCIPAL_INVESTIGATOR"
            }
          ],
          "geoPoint": {
            "lat": 40.71427,
            "lon": -74.00597
          }
        },
        {
          "facility": "University of Rochester Medical Center (URMC) - Golisano Children's Hospital (GCH)",
          "status": "NOT_YET_RECRUITING",
          "city": "Rochester",
          "state": "New York",
          "zip": "14642",
          "country": "United States",
          "contacts": [
            {
              "name": "Kirsi M Jarvinen-Seppo, MD",
              "role": "CONTACT",
              "phone": "585-276-7190",
              "email": "Kirsi_Jarvinen-Seppo@urmc.rochester.edu"
            },
            {
              "name": "Kirsi M Jarvinen-Seppo, MD",
              "role": "PRINCIPAL_INVESTIGATOR"
            }
          ],
          "geoPoint": {
            "lat": 43.15478,
            "lon": -77.61556
          }
        },
        {
          "facility": "Cincinnati Children's Hospital Medical Center",
          "status": "NOT_YET_RECRUITING",
          "city": "Cincinnati",
          "state": "Ohio",
          "zip": "45229",
          "country": "United States",
          "contacts": [
            {
              "name": "Amal Assa'ad, MD",
              "role": "CONTACT",
              "phone": "513-636-6771",
              "email": "amal.assa'ad@cchmc.org"
            },
            {
              "name": "Amal Assa'ad, MD",
              "role": "PRINCIPAL_INVESTIGATOR"
            }
          ],
          "geoPoint": {
            "lat": 39.12711,
            "lon": -84.51439
          }
        },
        {
          "facility": "Case Western Reserve University (CWRU) - University Hospitals Cleveland Medical Center",
          "status": "RECRUITING",
          "city": "Cleveland",
          "state": "Ohio",
          "zip": "44106",
          "country": "United States",
          "contacts": [
            {
              "name": "Thomas Sferra, MD",
              "role": "CONTACT",
              "phone": "216-844-1765",
              "phoneExt": "27860",
              "email": "Thomas.Sferra@UHhospitals.org"
            },
            {
              "name": "Thomas Sferra, MD",
              "role": "PRINCIPAL_INVESTIGATOR"
            }
          ],
          "geoPoint": {
            "lat": 41.4995,
            "lon": -81.69541
          }
        },
        {
          "facility": "Nationwide Children's Hospital",
          "status": "RECRUITING",
          "city": "Columbus",
          "state": "Ohio",
          "zip": "43205-2664",
          "country": "United States",
          "contacts": [
            {
              "name": "David Stukus, MD",
              "role": "CONTACT",
              "phone": "614-722-4808",
              "email": "david.stukus@nationwidechildrens.org"
            },
            {
              "name": "David Stukus, MD",
              "role": "PRINCIPAL_INVESTIGATOR"
            }
          ],
          "geoPoint": {
            "lat": 39.96118,
            "lon": -82.99879
          }
        },
        {
          "facility": "Allergy, Asthma & Clinical Research Center",
          "status": "RECRUITING",
          "city": "Oklahoma City",
          "state": "Oklahoma",
          "zip": "73120",
          "country": "United States",
          "contacts": [
            {
              "name": "Martha Tarpay, MD",
              "role": "CONTACT",
              "phone": "405-752-0393",
              "email": "mtarpay@mtarpay.com"
            },
            {
              "name": "Martha Tarpay, MD",
              "role": "PRINCIPAL_INVESTIGATOR"
            }
          ],
          "geoPoint": {
            "lat": 35.46756,
            "lon": -97.51643
          }
        },
        {
          "facility": "Children's Hospital of Philadelphia",
          "status": "NOT_YET_RECRUITING",
          "city": "Philadelphia",
          "state": "Pennsylvania",
          "zip": "19104",
          "country": "United States",
          "contacts": [
            {
              "name": "Terri Brown-Whitehorn, MD",
              "role": "CONTACT",
              "phone": "215-590-2549",
              "email": "brownte@email.chop.edu"
            },
            {
              "name": "Terri Brown-Whitehorn, MD",
              "role": "PRINCIPAL_INVESTIGATOR"
            }
          ],
          "geoPoint": {
            "lat": 39.95238,
            "lon": -75.16362
          }
        },
        {
          "facility": "Alliance for Multispecialty Research, LLC - New Roy Office",
          "status": "NOT_YET_RECRUITING",
          "city": "Roy",
          "state": "Utah",
          "zip": "84067",
          "country": "United States",
          "contacts": [
            {
              "name": "Anthony G Pruitt, MD",
              "role": "CONTACT",
              "phone": "801-773-8644",
              "email": "Tony.pruitt@amrllc.com"
            },
            {
              "name": "Anthony G Pruitt, MD",
              "role": "PRINCIPAL_INVESTIGATOR"
            }
          ],
          "geoPoint": {
            "lat": 41.16161,
            "lon": -112.02633
          }
        },
        {
          "facility": "Halton Pediatric Allergy",
          "status": "RECRUITING",
          "city": "Burlington",
          "state": "Ontario",
          "zip": "L7L 6W6",
          "country": "Canada",
          "contacts": [
            {
              "name": "Douglas Mack, MD",
              "role": "CONTACT",
              "phone": "9053159543",
              "email": "dougpmack@gmail.com"
            },
            {
              "name": "Douglas Mack, MD",
              "role": "PRINCIPAL_INVESTIGATOR"
            }
          ],
          "geoPoint": {
            "lat": 43.38621,
            "lon": -79.83713
          }
        },
        {
          "facility": "Hamilton Allergy",
          "status": "RECRUITING",
          "city": "Hamilton",
          "state": "Ontario",
          "zip": "L4A 1S4",
          "country": "Canada",
          "contacts": [
            {
              "name": "Jason Ohayon, MD",
              "role": "CONTACT",
              "phone": "905-525-4674",
              "email": "ohayonj@hamiltonallergy.ca"
            },
            {
              "name": "Jason Ohayon, MD",
              "role": "PRINCIPAL_INVESTIGATOR"
            }
          ],
          "geoPoint": {
            "lat": 43.25011,
            "lon": -79.84963
          }
        },
        {
          "facility": "Gordon Sussman Clinical Research Inc.",
          "status": "WITHDRAWN",
          "city": "North York",
          "state": "Ontario",
          "zip": "M3B 356",
          "country": "Canada"
        },
        {
          "facility": "Azienda Ospedaliera Universitaria Federico II",
          "status": "RECRUITING",
          "city": "Napoli",
          "zip": "80131",
          "country": "Italy",
          "contacts": [
            {
              "name": "Roberto Berni Canani, MD",
              "role": "CONTACT",
              "phone": "390 815451278",
              "email": "berni@unina.it"
            },
            {
              "name": "Roberto Berni Canani, MD",
              "role": "PRINCIPAL_INVESTIGATOR"
            }
          ],
          "geoPoint": {
            "lat": 40.87618,
            "lon": 14.5195
          }
        },
        {
          "facility": "Azienda Ospedaliera di Padova",
          "status": "RECRUITING",
          "city": "Padua",
          "zip": "35128",
          "country": "Italy",
          "contacts": [
            {
              "name": "Antonella Muraro",
              "role": "CONTACT",
              "phone": "39 335 7080827",
              "email": "muraro@centroallergiealimentari.eu"
            },
            {
              "name": "Antonella Muraro, MD",
              "role": "PRINCIPAL_INVESTIGATOR"
            }
          ],
          "geoPoint": {
            "lat": 45.40797,
            "lon": 11.88586
          }
        },
        {
          "facility": "UOC Pediatria ad Indirizzo Gastroenterologico - Ospedale pediatrico Di Cristina",
          "status": "RECRUITING",
          "city": "Palermo",
          "zip": "90134",
          "country": "Italy",
          "contacts": [
            {
              "name": "Francesca Cavataio",
              "role": "CONTACT",
              "phone": "39 916666192",
              "email": "francesca.cavataio@arnascivico.it"
            },
            {
              "name": "Francesca Cavataio, MD",
              "role": "PRINCIPAL_INVESTIGATOR"
            }
          ],
          "geoPoint": {
            "lat": 38.1166,
            "lon": 13.3636
          }
        },
        {
          "facility": "IRCCS Fondazione Policlinico San Matteo - Pediatria",
          "status": "RECRUITING",
          "city": "Pavia",
          "zip": "27100",
          "country": "Italy",
          "contacts": [
            {
              "name": "Amelia Licari, MD",
              "role": "CONTACT",
              "phone": "39 0382502629",
              "email": "a.licari@smatteo.pv.it"
            },
            {
              "name": "Amelia Licari, MD",
              "role": "PRINCIPAL_INVESTIGATOR"
            }
          ],
          "geoPoint": {
            "lat": 45.19205,
            "lon": 9.15917
          }
        },
        {
          "facility": "Azienda Ospedaliero Universitaria Pisana - Ospedale Santa Chiara",
          "status": "RECRUITING",
          "city": "Pisa",
          "zip": "56126",
          "country": "Italy",
          "contacts": [
            {
              "name": "Diego Peroni",
              "role": "CONTACT",
              "phone": "39 050993180",
              "email": "perodiego@gmail.com"
            },
            {
              "name": "Diego Peroni, MD",
              "role": "PRINCIPAL_INVESTIGATOR"
            }
          ],
          "geoPoint": {
            "lat": 43.70853,
            "lon": 10.4036
          }
        },
        {
          "facility": "IRCCS Ospedale Pediatrico Bambino Gesù",
          "status": "NOT_YET_RECRUITING",
          "city": "Roma",
          "zip": "00146",
          "country": "Italy",
          "contacts": [
            {
              "name": "Alessandro Fiocchi, MD",
              "role": "CONTACT",
              "phone": "39 06 6859 2309",
              "email": "alessandro.fiocchi@allegriallergia.net"
            },
            {
              "name": "Alessandro Fiocchi, MD",
              "role": "PRINCIPAL_INVESTIGATOR"
            }
          ],
          "geoPoint": {
            "lat": 44.99364,
            "lon": 11.10642
          }
        },
        {
          "facility": "Università la Sapienza U.O.C di Gastroenterologia, Epatologia e Endoscopia Digestiva Pediatrica",
          "status": "RECRUITING",
          "city": "Roma",
          "zip": "00161",
          "country": "Italy",
          "contacts": [
            {
              "name": "Marina Aloi, MD",
              "role": "CONTACT",
              "phone": "39 0649979387",
              "email": "marina.aloi@uniroma1.it"
            },
            {
              "name": "Marina Aloi, MD",
              "role": "PRINCIPAL_INVESTIGATOR"
            }
          ],
          "geoPoint": {
            "lat": 44.99364,
            "lon": 11.10642
          }
        },
        {
          "facility": "Azienda Ospedaliera Universitaria Integrata Verona - Ospedale Borgo Roma",
          "status": "RECRUITING",
          "city": "Verona",
          "zip": "37134",
          "country": "Italy",
          "contacts": [
            {
              "name": "Giorgio Piacentini, MD",
              "role": "CONTACT",
              "phone": "39 045 812 7120",
              "email": "giorgio.piacentini@univr.it"
            },
            {
              "name": "Giorgio Piacentini, MD",
              "role": "PRINCIPAL_INVESTIGATOR"
            }
          ],
          "geoPoint": {
            "lat": 45.43854,
            "lon": 10.9938
          }
        },
        {
          "facility": "Hospital of Lithuanian University of Health Sciences Kauno Klinikos",
          "status": "RECRUITING",
          "city": "Kaunas",
          "zip": "50161",
          "country": "Lithuania",
          "contacts": [
            {
              "name": "Jolanta Kudzyte, MD",
              "role": "CONTACT",
              "phone": "37068685286",
              "email": "jolantakudzyte@gmail.com"
            },
            {
              "name": "Jolanta Kudzyte, MD",
              "role": "PRINCIPAL_INVESTIGATOR"
            }
          ],
          "geoPoint": {
            "lat": 54.90156,
            "lon": 23.90909
          }
        },
        {
          "facility": "Vilnius University Hospital Santaros Klinikos, Centre of Pediatrics",
          "status": "RECRUITING",
          "city": "Vilnius",
          "zip": "08406",
          "country": "Lithuania",
          "contacts": [
            {
              "name": "Odilija Rudzeviciene, MD",
              "role": "CONTACT",
              "phone": "37060820243",
              "email": "odilija.rudzeviciene@santa.lt"
            },
            {
              "name": "Odilija Rudzeviciene, MD",
              "role": "PRINCIPAL_INVESTIGATOR"
            }
          ],
          "geoPoint": {
            "lat": 54.68916,
            "lon": 25.2798
          }
        }
      ]
    }
  },
  "derivedSection": {
    "miscInfoModule": {
      "versionHolder": "2026-02-04"
    },
    "conditionBrowseModule": {
      "meshes": [
        {
          "id": "D016269",
          "term": "Milk Hypersensitivity"
        }
      ],
      "ancestors": [
        {
          "id": "D005512",
          "term": "Food Hypersensitivity"
        },
        {
          "id": "D006969",
          "term": "Hypersensitivity, Immediate"
        },
        {
          "id": "D006967",
          "term": "Hypersensitivity"
        },
        {
          "id": "D007154",
          "term": "Immune System Diseases"
        }
      ]
    }
  },
  "hasResults": false
}