{
  "protocolSection": {
    "identificationModule": {
      "nctId": "NCT06707883",
      "orgStudyIdInfo": {
        "id": "TQC2731-II-04"
      },
      "organization": {
        "fullName": "Chia Tai Tianqing Pharmaceutical Group Co., Ltd.",
        "class": "INDUSTRY"
      },
      "briefTitle": "A Clinical Study of TQC2731 Injection in Patients With Moderate to Severe Chronic Obstructive Pulmonary Disease",
      "officialTitle": "A Multicenter, Randomized, Double-blind, Placebo-controlled Phase II Clinical Study to Evaluate the Efficacy, Safety, and Pharmacokinetics of TQC2731 Injection in Patients With Moderate to Severe Chronic Obstructive Pulmonary Disease"
    },
    "statusModule": {
      "statusVerifiedDate": "2025-11",
      "overallStatus": "ACTIVE_NOT_RECRUITING",
      "expandedAccessInfo": {
        "hasExpandedAccess": false
      },
      "startDateStruct": {
        "date": "2024-12-31",
        "type": "ACTUAL"
      },
      "primaryCompletionDateStruct": {
        "date": "2026-12",
        "type": "ESTIMATED"
      },
      "completionDateStruct": {
        "date": "2027-09",
        "type": "ESTIMATED"
      },
      "studyFirstSubmitDate": "2024-11-25",
      "studyFirstSubmitQcDate": "2024-11-26",
      "studyFirstPostDateStruct": {
        "date": "2024-11-27",
        "type": "ACTUAL"
      },
      "lastUpdateSubmitDate": "2025-12-10",
      "lastUpdatePostDateStruct": {
        "date": "2025-12-12",
        "type": "ACTUAL"
      }
    },
    "sponsorCollaboratorsModule": {
      "responsibleParty": {
        "type": "SPONSOR"
      },
      "leadSponsor": {
        "name": "Shanghai Chia Tai Tianqing Pharmaceutical Technology Development Co., Ltd.",
        "class": "INDUSTRY"
      }
    },
    "oversightModule": {
      "isFdaRegulatedDrug": false,
      "isFdaRegulatedDevice": false
    },
    "descriptionModule": {
      "briefSummary": "To evaluate the efficacy and safety of TQC2731 injection in patients with moderate to severe chronic obstructive pulmonary disease."
    },
    "conditionsModule": {
      "conditions": [
        "Chronic Obstructive Pulmonary Disease"
      ]
    },
    "designModule": {
      "studyType": "INTERVENTIONAL",
      "phases": [
        "PHASE2"
      ],
      "designInfo": {
        "allocation": "RANDOMIZED",
        "interventionModel": "PARALLEL",
        "primaryPurpose": "TREATMENT",
        "maskingInfo": {
          "masking": "QUADRUPLE",
          "whoMasked": [
            "PARTICIPANT",
            "CARE_PROVIDER",
            "INVESTIGATOR",
            "OUTCOMES_ASSESSOR"
          ]
        }
      },
      "enrollmentInfo": {
        "count": 258,
        "type": "ACTUAL"
      }
    },
    "armsInterventionsModule": {
      "armGroups": [
        {
          "label": "TQC2731 injection",
          "type": "EXPERIMENTAL",
          "description": "TQC2731 injection, 28days as a treatment cycle.",
          "interventionNames": [
            "Drug: TQC2731 injection"
          ]
        },
        {
          "label": "TQC2731 Placebo",
          "type": "PLACEBO_COMPARATOR",
          "description": "TQC2731 Placebo, 28days as a treatment cycle.",
          "interventionNames": [
            "Drug: TQC2731 Placebo"
          ]
        }
      ],
      "interventions": [
        {
          "type": "DRUG",
          "name": "TQC2731 injection",
          "description": "TQC2731 injection is a monoclonal antibody that blocks thymic stromal lymphopoietin (TSLP)",
          "armGroupLabels": [
            "TQC2731 injection"
          ]
        },
        {
          "type": "DRUG",
          "name": "TQC2731 Placebo",
          "description": "TQC2731 Placebo without drug substance.",
          "armGroupLabels": [
            "TQC2731 Placebo"
          ]
        }
      ]
    },
    "outcomesModule": {
      "primaryOutcomes": [
        {
          "measure": "Annual rate of acute COPD exacerbation",
          "description": "Annualized rate of moderate or severe COPD exacerbations over the 24-week treatment period compared to placebo",
          "timeFrame": "Baseline to week 24"
        }
      ],
      "secondaryOutcomes": [
        {
          "measure": "Change in pre-bronchodilator forced expiratory volume (FEV1)",
          "description": "Change in pre-bronchodilator FEV1 from baseline to week 24 compared to placebo.",
          "timeFrame": "Baseline to week 24"
        },
        {
          "measure": "Annual rate of acute COPD exacerbation",
          "description": "Annualized rate of moderate COPD exacerbations over the 52-week treatment period compared to placebo.",
          "timeFrame": "Baseline to week 52"
        },
        {
          "measure": "Improvement in St. George's Respiratory Questionnaire (SGRQ)",
          "description": "Proportion of patients with SGRQ improvement ≥4 points at Week 52",
          "timeFrame": "Baseline to week 52"
        },
        {
          "measure": "Change in SGRQ",
          "description": "Change from baseline to Week 52 in SGRQ total score compared to placebo",
          "timeFrame": "Baseline to week 52"
        },
        {
          "measure": "Change in pre-bronchodilator FEV1",
          "description": "Change in pre-bronchodilator FEV1 from baseline to week 52 compared to placebo.",
          "timeFrame": "Baseline to week 52"
        },
        {
          "measure": "Annual rate of acute COPD exacerbation",
          "description": "Annualized rate of severe COPD exacerbations over the 52-week treatment period compared to placebo.",
          "timeFrame": "Baseline to week 52"
        },
        {
          "measure": "Change in post-bronchodilator FEV1",
          "description": "Change in post-bronchodilator FEV1 from baseline to week 24 and 52 compared to placebo.",
          "timeFrame": "Baseline to week 24 and 52"
        },
        {
          "measure": "Change in EXACT",
          "description": "Change from baseline to Week 52 in EXACT total score compared to placebo.",
          "timeFrame": "Baseline to week 52"
        },
        {
          "measure": "Adverse Events (AE) and Serious Adverse Events (SAE)",
          "description": "The incidence and severity of AE and SAE, as well as abnormal laboratory examination index.",
          "timeFrame": "Baseline to 64 weeks"
        },
        {
          "measure": "Anti-drug antibodies (ADA)",
          "description": "Incidence of ADA.",
          "timeFrame": "Baseline through week 52"
        },
        {
          "measure": "Immunoglobulin E (IgE)",
          "description": "Changes in IgE levels in peripheral blood.",
          "timeFrame": "Baseline to 52 weeks"
        },
        {
          "measure": "Fractional exhaled nitric oxide (FeNO)",
          "description": "Changes in FeNO.",
          "timeFrame": "Baseline to 52 weeks"
        }
      ]
    },
    "eligibilityModule": {
      "eligibilityCriteria": "Inclusion Criteria:\n\n* Able and willing to provide written informed consent and comply with the study protocol;\n* Participant must be ≥40 to ≤80 years of age at the time of signing informed consent.\n* Participants with a physician diagnosis of Chronic Obstructive Pulmonary Disease(COPD) and a history of COPD ≥12 months with medical records or related records at the time of screening;\n* Post-bronchodilator FEV1/Forced vital capacity (FVC)\\<0.70 and post-bronchodilator FEV1 % predicted ≥20% and \\< 80% during screening.\n* Modified Medical Research Council (mMRC) Dyspnea Scale grade≥2 during screening.\n* Background triple therapy (ICS+long-acting beta-agonists (LABA)+LAMA) for at least 3 months with a stable dose for at least 1 month prior to randomization; Double therapy allowed if ICS is contraindicated.\n* With a history of acute exacerbation of ≥2 moderate or ≥1 severe within the previous 12 months prior to screening. Multiple acute exacerbation events with an interval of less than 14 days are counted as one.\n\nExclusion Criteria:\n\n* COPD with asthma;\n* Subjects with active pulmonary diseases other than COPD assessed by the investigator.\n* Moderate to severe Acute exacerbations of chronic obstructive pulmonary disease (AECOPD) occurred within 4 weeks prior to screening or during screening;\n* History of lung transplantation;\n* Previous use of TQC2731.\n* Diagnosis of alpha-1 anti-trypsin deficiency;\n* History of lung volume reduction surgery or pneumonectomy within 6 months prior to randomization, or planned lung volume reduction surgery during the study period;\n* Positive hepatitis B surface antigen, or hepatitis C virus antibody, or syphilis antibody.\n* Diagnosis of immunodeficiency, including but not limited to HIV infection;\n* Infection requiring systemic therapy within 2 weeks prior to randomization.\n* Starting rehabilitation within 4 weeks prior to randomization, or planned rehabilitation during the study period;\n* Treatment with oxygen of more than 12 hours per day.\n* Heart failure New York Heart Association (NYHA) class III or IV during the screening period.\n* History of malignancy within 5 years prior to screening, excluding cervical carcinoma in situ, ductal carcinoma in situ, etc.\n* Pregnancy or breastfeeding.",
      "healthyVolunteers": false,
      "sex": "ALL",
      "minimumAge": "40 Years",
      "maximumAge": "80 Years",
      "stdAges": [
        "ADULT",
        "OLDER_ADULT"
      ]
    },
    "contactsLocationsModule": {
      "locations": [
        {
          "facility": "The First People's Hospital of Chuzhou",
          "city": "Chuzhou",
          "state": "Anhui",
          "zip": "239001",
          "country": "China",
          "geoPoint": {
            "lat": 32.32194,
            "lon": 118.29778
          }
        },
        {
          "facility": "The second hospital of ANHUI medical university",
          "city": "Hefei",
          "state": "Anhui",
          "zip": "230601",
          "country": "China",
          "geoPoint": {
            "lat": 31.86389,
            "lon": 117.28083
          }
        },
        {
          "facility": "Huainan Dongfang Hospital Group General Hospital",
          "city": "Huainan",
          "state": "Anhui",
          "zip": "232033",
          "country": "China",
          "geoPoint": {
            "lat": 32.62639,
            "lon": 116.99694
          }
        },
        {
          "facility": "Capital Medical University Beijing Chaoyang Hospital",
          "city": "Beijing",
          "state": "Beijing Municipality",
          "zip": "100020",
          "country": "China",
          "geoPoint": {
            "lat": 39.9075,
            "lon": 116.39723
          }
        },
        {
          "facility": "China-Japan Friendship Hospital",
          "city": "Beijing",
          "state": "Beijing Municipality",
          "zip": "100029",
          "country": "China",
          "geoPoint": {
            "lat": 39.9075,
            "lon": 116.39723
          }
        },
        {
          "facility": "The First Hospital of Lanzhou University",
          "city": "Lanzhou",
          "state": "Gansu",
          "zip": "730000",
          "country": "China",
          "geoPoint": {
            "lat": 36.05701,
            "lon": 103.83987
          }
        },
        {
          "facility": "Shunde Hospital Of Southern Medical University",
          "city": "Foshan",
          "state": "Guangdong",
          "zip": "528308",
          "country": "China",
          "geoPoint": {
            "lat": 23.02677,
            "lon": 113.13148
          }
        },
        {
          "facility": "The First Affiliated Hospital of Guangzhou Medical University",
          "city": "Guangzhou",
          "state": "Guangdong",
          "zip": "510120",
          "country": "China",
          "geoPoint": {
            "lat": 23.11667,
            "lon": 113.25
          }
        },
        {
          "facility": "Jiangmen Central Hospital",
          "city": "Jiangmen",
          "state": "Guangdong",
          "zip": "529000",
          "country": "China",
          "geoPoint": {
            "lat": 22.58333,
            "lon": 113.08333
          }
        },
        {
          "facility": "Affiliated Qingyuan Hospital,Guangzhou Medical University,Qingyuan People's Hospital",
          "city": "Qingyuan",
          "state": "Guangdong",
          "zip": "511699",
          "country": "China",
          "geoPoint": {
            "lat": 23.7,
            "lon": 113.03333
          }
        },
        {
          "facility": "Zhongshan City People's Hospital",
          "city": "Zhongshan",
          "state": "Guangdong",
          "zip": "528403",
          "country": "China",
          "geoPoint": {
            "lat": 22.52306,
            "lon": 113.37912
          }
        },
        {
          "facility": "Nanxishan Hospital of Guangxi Zhuang Autonomous",
          "city": "Guilin",
          "state": "Guangxi",
          "zip": "541002",
          "country": "China",
          "geoPoint": {
            "lat": 25.28022,
            "lon": 110.29639
          }
        },
        {
          "facility": "The First People' Hospital Of YuLin",
          "city": "Yulin",
          "state": "Guangxi",
          "zip": "537000",
          "country": "China",
          "geoPoint": {
            "lat": 22.6305,
            "lon": 110.14686
          }
        },
        {
          "facility": "Zunyi Medical University Affiliated Hospital",
          "city": "Zunyi",
          "state": "Guizhou",
          "zip": "563000",
          "country": "China",
          "geoPoint": {
            "lat": 27.68667,
            "lon": 106.90722
          }
        },
        {
          "facility": "Cangzhou Central Hospital",
          "city": "Cangzhou",
          "state": "Hebei",
          "zip": "611011",
          "country": "China",
          "geoPoint": {
            "lat": 38.31124,
            "lon": 116.85334
          }
        },
        {
          "facility": "The Second Hospital of Hebei Medical University",
          "city": "Shijiazhuang",
          "state": "Hebei",
          "zip": "050000",
          "country": "China",
          "geoPoint": {
            "lat": 38.04139,
            "lon": 114.47861
          }
        },
        {
          "facility": "Jiaozuo Second People's Hospital",
          "city": "Jiaozuo",
          "state": "Henan",
          "zip": "454150",
          "country": "China",
          "geoPoint": {
            "lat": 35.23925,
            "lon": 113.23914
          }
        },
        {
          "facility": "The First Affiliated Hospital of Henan University of Science & Technology",
          "city": "Luoyang",
          "state": "Henan",
          "zip": "471003",
          "country": "China",
          "geoPoint": {
            "lat": 34.67345,
            "lon": 112.43684
          }
        },
        {
          "facility": "Puyang Oilfield General Hospital",
          "city": "Puyang",
          "state": "Henan",
          "zip": "457001",
          "country": "China",
          "geoPoint": {
            "lat": 35.75641,
            "lon": 115.04363
          }
        },
        {
          "facility": "Henan Chest Hospital",
          "city": "Zhengzhou",
          "state": "Henan",
          "zip": "450000",
          "country": "China",
          "geoPoint": {
            "lat": 34.75778,
            "lon": 113.64861
          }
        },
        {
          "facility": "Jianghan University Affiliated Hospital (Wuhan Sixth Hospital)",
          "city": "Wuhan",
          "state": "Hubei",
          "zip": "430014",
          "country": "China",
          "geoPoint": {
            "lat": 30.58333,
            "lon": 114.26667
          }
        },
        {
          "facility": "Wuhan Central Hospital",
          "city": "Wuhan",
          "state": "Hubei",
          "zip": "430014",
          "country": "China",
          "geoPoint": {
            "lat": 30.58333,
            "lon": 114.26667
          }
        },
        {
          "facility": "Yichang Central People's Hospital",
          "city": "Yichang",
          "state": "Hubei",
          "zip": "443003",
          "country": "China",
          "geoPoint": {
            "lat": 30.71444,
            "lon": 111.28472
          }
        },
        {
          "facility": "Changsha First Hospital",
          "city": "Changsha",
          "state": "Hunan",
          "zip": "410005",
          "country": "China",
          "geoPoint": {
            "lat": 28.19874,
            "lon": 112.97087
          }
        },
        {
          "facility": "Xiangya Hospital of Central South University",
          "city": "Changsha",
          "state": "Hunan",
          "zip": "410008",
          "country": "China",
          "geoPoint": {
            "lat": 28.19874,
            "lon": 112.97087
          }
        },
        {
          "facility": "The Third Xiangya Hospital of Central South University",
          "city": "Changsha",
          "state": "Hunan",
          "zip": "410013",
          "country": "China",
          "geoPoint": {
            "lat": 28.19874,
            "lon": 112.97087
          }
        },
        {
          "facility": "Xiangtan County People's Hospital",
          "city": "Xiangtan",
          "state": "Hunan",
          "zip": "411228",
          "country": "China",
          "geoPoint": {
            "lat": 27.85,
            "lon": 112.9
          }
        },
        {
          "facility": "Xiangya Hospital Zhuzhou Central South University",
          "city": "Zhuzhou",
          "state": "Hunan",
          "zip": "412007",
          "country": "China",
          "geoPoint": {
            "lat": 27.83333,
            "lon": 113.15
          }
        },
        {
          "facility": "Inner Mongolia Autonomous Region People's Hospital",
          "city": "Hohhot",
          "state": "Inner Mongolia",
          "zip": "010000",
          "country": "China",
          "geoPoint": {
            "lat": 40.81056,
            "lon": 111.65222
          }
        },
        {
          "facility": "The Affiliated Hospital of Inner Mongolia Medical University",
          "city": "Hohhot",
          "state": "Inner Mongolia",
          "zip": "10000",
          "country": "China",
          "geoPoint": {
            "lat": 40.81056,
            "lon": 111.65222
          }
        },
        {
          "facility": "Jiangyin Hospital of Traditional Chinese Medicine",
          "city": "Jiangyin",
          "state": "Jiangsu",
          "zip": "214400",
          "country": "China",
          "geoPoint": {
            "lat": 31.91102,
            "lon": 120.26302
          }
        },
        {
          "facility": "The Fifth People's Hospital of Wuxi",
          "city": "Wuxi",
          "state": "Jiangsu",
          "zip": "214001",
          "country": "China",
          "geoPoint": {
            "lat": 31.56887,
            "lon": 120.28857
          }
        },
        {
          "facility": "Yixing People'S Hospital",
          "city": "Wuxi",
          "state": "Jiangsu",
          "zip": "214200",
          "country": "China",
          "geoPoint": {
            "lat": 31.56887,
            "lon": 120.28857
          }
        },
        {
          "facility": "XuZhou Central Hospital",
          "city": "Xuzhou",
          "state": "Jiangsu",
          "zip": "221000",
          "country": "China",
          "geoPoint": {
            "lat": 34.20442,
            "lon": 117.28386
          }
        },
        {
          "facility": "Affiliated Hospital of Jiangsu University",
          "city": "Zhenjiang",
          "state": "Jiangsu",
          "zip": "212050",
          "country": "China",
          "geoPoint": {
            "lat": 32.21086,
            "lon": 119.45508
          }
        },
        {
          "facility": "Jiangxi Provincial People's Hospital",
          "city": "Nanchang",
          "state": "Jiangxi",
          "zip": "330006",
          "country": "China",
          "geoPoint": {
            "lat": 28.68396,
            "lon": 115.85306
          }
        },
        {
          "facility": "Xinyu People'S Hospital",
          "city": "Xinyu",
          "state": "Jiangxi",
          "zip": "338000",
          "country": "China",
          "geoPoint": {
            "lat": 27.80429,
            "lon": 114.93335
          }
        },
        {
          "facility": "The First Hospital of Jilin University",
          "city": "Changchun",
          "state": "Jilin",
          "zip": "130021",
          "country": "China",
          "geoPoint": {
            "lat": 43.88,
            "lon": 125.32278
          }
        },
        {
          "facility": "General Hospital of Anshan Iron and Steel Group Corporation",
          "city": "Anshan",
          "state": "Liaoning",
          "zip": "114000",
          "country": "China",
          "geoPoint": {
            "lat": 41.12361,
            "lon": 122.99
          }
        },
        {
          "facility": "Benxi Central Hospital",
          "city": "Benxi",
          "state": "Liaoning",
          "zip": "117000",
          "country": "China",
          "geoPoint": {
            "lat": 41.28861,
            "lon": 123.765
          }
        },
        {
          "facility": "Shengjing Hospital of China Medical University",
          "city": "Shenyang",
          "state": "Liaoning",
          "zip": "110004",
          "country": "China",
          "geoPoint": {
            "lat": 41.79222,
            "lon": 123.43278
          }
        },
        {
          "facility": "Heze Municipal Hospital",
          "city": "Heze",
          "state": "Shandong",
          "zip": "274000",
          "country": "China",
          "geoPoint": {
            "lat": 35.23929,
            "lon": 115.47358
          }
        },
        {
          "facility": "Linyi People's Hospital",
          "city": "Linyi",
          "state": "Shandong",
          "zip": "276005",
          "country": "China",
          "geoPoint": {
            "lat": 35.06306,
            "lon": 118.34278
          }
        },
        {
          "facility": "Qingdao Municipal Hospital",
          "city": "Qingdao",
          "state": "Shandong",
          "zip": "266011",
          "country": "China",
          "geoPoint": {
            "lat": 36.06488,
            "lon": 120.38042
          }
        },
        {
          "facility": "Weifang NO.2 People' Hospital",
          "city": "Weifang",
          "state": "Shandong",
          "zip": "261041",
          "country": "China",
          "geoPoint": {
            "lat": 36.71,
            "lon": 119.10194
          }
        },
        {
          "facility": "Shanghai General Hospital",
          "city": "Shanghai",
          "state": "Shanghai Municipality",
          "zip": "200080",
          "country": "China",
          "geoPoint": {
            "lat": 31.22222,
            "lon": 121.45806
          }
        },
        {
          "facility": "Shanghai JiaoTong University of medicine Ruijin Hospital",
          "city": "Shanghai",
          "state": "Shanghai Municipality",
          "zip": "20025",
          "country": "China",
          "geoPoint": {
            "lat": 31.22222,
            "lon": 121.45806
          }
        },
        {
          "facility": "Shanghai Pulmonary Hospital",
          "city": "Shanghai",
          "state": "Shanghai Municipality",
          "zip": "200433",
          "country": "China",
          "geoPoint": {
            "lat": 31.22222,
            "lon": 121.45806
          }
        },
        {
          "facility": "Affiliated Hospital Of ChengDu University",
          "city": "Chengdu",
          "state": "Sichuan",
          "zip": "610081",
          "country": "China",
          "geoPoint": {
            "lat": 30.66667,
            "lon": 104.06667
          }
        },
        {
          "facility": "Guangyuan Central Hospital",
          "city": "Guangyuan",
          "state": "Sichuan",
          "zip": "628017",
          "country": "China",
          "geoPoint": {
            "lat": 32.44201,
            "lon": 105.823
          }
        },
        {
          "facility": "Leshan People's Hospital",
          "city": "Leshan",
          "state": "Sichuan",
          "zip": "614099",
          "country": "China",
          "geoPoint": {
            "lat": 29.56227,
            "lon": 103.76386
          }
        },
        {
          "facility": "Meishan People's Hospital",
          "city": "Meishan",
          "state": "Sichuan",
          "zip": "620000",
          "country": "China",
          "geoPoint": {
            "lat": 30.04392,
            "lon": 103.83696
          }
        },
        {
          "facility": "Suining Central Hospital",
          "city": "Suining",
          "state": "Sichuan",
          "zip": "629000",
          "country": "China",
          "geoPoint": {
            "lat": 30.50802,
            "lon": 105.57332
          }
        },
        {
          "facility": "General Hospital of Tianjin Medical University",
          "city": "Tianjin",
          "state": "Tianjin Municipality",
          "zip": "300070",
          "country": "China",
          "geoPoint": {
            "lat": 39.14222,
            "lon": 117.17667
          }
        },
        {
          "facility": "The Fourth Central Hospital of Tianjin",
          "city": "Tianjin",
          "state": "Tianjin Municipality",
          "zip": "300140",
          "country": "China",
          "geoPoint": {
            "lat": 39.14222,
            "lon": 117.17667
          }
        },
        {
          "facility": "The First Affiliated Hospital of Shihezi University",
          "city": "Shihezi",
          "state": "Xinjiang",
          "zip": "832000",
          "country": "China",
          "geoPoint": {
            "lat": 44.3023,
            "lon": 86.03694
          }
        },
        {
          "facility": "The First Affiliated Hospital of Xinjiang Medical University",
          "city": "Ürümqi",
          "state": "Xinjiang",
          "zip": "831400",
          "country": "China",
          "geoPoint": {
            "lat": 43.80096,
            "lon": 87.60046
          }
        },
        {
          "facility": "Jiaxing Second Hospital",
          "city": "Jiaxing",
          "state": "Zhejiang",
          "zip": "314000",
          "country": "China",
          "geoPoint": {
            "lat": 30.7522,
            "lon": 120.75
          }
        },
        {
          "facility": "Taizhou Central Hospital Central Hospital",
          "city": "Taizhou",
          "state": "Zhejiang",
          "zip": "318000",
          "country": "China",
          "geoPoint": {
            "lat": 28.66266,
            "lon": 121.43312
          }
        },
        {
          "facility": "The 2th School of Medicine ,WMU/The 2th affiliated Hospital and Yuying Children's Hospital of WMU",
          "city": "Wenzhou",
          "state": "Zhejiang",
          "zip": "325027",
          "country": "China",
          "geoPoint": {
            "lat": 27.99942,
            "lon": 120.66682
          }
        }
      ]
    }
  },
  "derivedSection": {
    "miscInfoModule": {
      "versionHolder": "2026-02-04"
    },
    "conditionBrowseModule": {
      "meshes": [
        {
          "id": "D029424",
          "term": "Pulmonary Disease, Chronic Obstructive"
        }
      ],
      "ancestors": [
        {
          "id": "D008173",
          "term": "Lung Diseases, Obstructive"
        },
        {
          "id": "D008171",
          "term": "Lung Diseases"
        },
        {
          "id": "D012140",
          "term": "Respiratory Tract Diseases"
        },
        {
          "id": "D002908",
          "term": "Chronic Disease"
        },
        {
          "id": "D020969",
          "term": "Disease Attributes"
        },
        {
          "id": "D010335",
          "term": "Pathologic Processes"
        },
        {
          "id": "D013568",
          "term": "Pathological Conditions, Signs and Symptoms"
        }
      ]
    }
  },
  "hasResults": false
}